Time (ms),Altitude,Vertical Velocity,Vertical Acceleration,Yaw,Pitch,Roll
75331,178.99,0,-14.3602,1.07238,-1.09084,-1.80411
75390,163.724,-11.404,-14.3546,1.07208,-1.08968,-1.79895
75449,149.078,-21.9122,-14.9371,1.06939,-1.08779,-1.79093
75512,134.1,-32.2381,-14.3982,1.07093,-1.0868,-1.78704
75571,120.753,-40.9979,-14.4983,1.07055,-1.08575,-1.78229
75631,107.812,-49.1072,-14.6088,1.06659,-1.08345,-1.77201
75694,94.8808,-56.8118,-15.0046,1.06121,-1.08085,-1.76093
75753,83.4291,-63.2894,-14.3706,1.06166,-1.08004,-1.7565
75816,71.815,-69.4505,-14.5278,1.0682,-1.0807,-1.75862
75875,61.5838,-74.5386,-14.6406,1.07767,-1.08261,-1.76497
75934,51.9229,-79.0304,-14.6144,1.07935,-1.08244,-1.76254
75997,42.199,-83.2131,-14.4068,1.08091,-1.08257,-1.75993
76056,33.6718,-86.5515,-14.7191,1.07816,-1.08166,-1.75296
76116,25.5443,-89.4481,-14.5072,1.07909,-1.08169,-1.7493
76179,17.5713,-91.9592,-14.5985,1.09083,-1.08467,-1.7581
76239,10.5341,-93.8692,-14.8852,1.09647,-1.08589,-1.75964
76298,4.10009,-95.3499,-14.5606,1.08499,-1.08271,-1.74206
76362,-2.39005,-96.5293,-14.2759,1.07379,-1.07936,-1.72434
76421,-7.88946,-97.2187,-13.9105,1.07211,-1.07816,-1.71728
76485,-13.3939,-97.5931,-14.329,1.08401,-1.07997,-1.72491
76544,-18.0282,-97.6429,-14.0939,1.08918,-1.0802,-1.7253
76604,-22.3501,-97.4069,-13.7487,1.07989,-1.07558,-1.70658
76668,-26.5467,-96.8586,-14.3332,1.07672,-1.07326,-1.69765
76727,-30.0292,-96.1409,-14.5358,1.0767,-1.07146,-1.69244
76787,-33.2265,-95.2146,-14.7059,1.07787,-1.07013,-1.68912
76850,-36.2306,-94.0496,-14.6483,1.08252,-1.06994,-1.68941
76910,-38.7562,-92.7517,-14.7355,1.08449,-1.06909,-1.68669
76973,-41.0983,-91.238,-14.7325,1.07977,-1.06681,-1.67612
77062,-43.9362,-88.888,-14.6736,1.07733,-1.06485,-1.66497
77122,-45.4842,-87.1292,-14.6687,1.07847,-1.06426,-1.65997
77185,-46.8496,-85.1807,-14.6777,1.08033,-1.06419,-1.65627
77244,-47.909,-83.2818,-14.6821,1.07994,-1.06347,-1.65003
77304,-48.7764,-81.285,-14.7316,1.07785,-1.06224,-1.64181
77367,-49.4736,-79.133,-14.5464,1.07651,-1.061,-1.63408
77427,-49.952,-77.0313,-14.489,1.07593,-1.06013,-1.62848
77490,-50.2781,-74.793,-14.6123,1.07413,-1.05877,-1.62113
77550,-50.421,-72.6432,-14.6195,1.07095,-1.05675,-1.61261
77609,-50.4242,-70.5217,-15.0047,1.07209,-1.05601,-1.60942
77673,-50.2872,-68.2451,-14.7407,1.08262,-1.05805,-1.61678
77732,-50.0471,-66.1418,-14.6128,1.0835,-1.05715,-1.6136
77792,-49.7013,-64.013,-14.6552,1.0794,-1.05482,-1.60444
77855,-49.2302,-61.8008,-14.7012,1.07957,-1.05414,-1.59974
77915,-48.6852,-59.7197,-14.6625,1.08947,-1.0557,-1.60627
77978,-48.028,-57.5663,-14.7877,1.10373,-1.05854,-1.61703
78038,-47.3351,-55.5638,-14.8647,1.09771,-1.05619,-1.60423
78098,-46.5837,-53.6084,-14.8007,1.09323,-1.05464,-1.59351
78161,-45.731,-51.5946,-15.4122,1.09681,-1.05487,-1.59169
78221,-44.8714,-49.7615,-14.6368,1.09826,-1.05462,-1.5876
78281,-43.973,-47.932,-14.7915,1.09848,-1.0539,-1.58172
78344,-42.9967,-46.0795,-15.1376,1.09592,-1.05267,-1.57242
78404,-42.0466,-44.3967,-14.8488,1.09538,-1.05184,-1.56555
78467,-41.0257,-42.6709,-14.4661,1.09866,-1.05159,-1.56279
78527,-40.0465,-41.0701,-14.7135,1.09847,-1.05047,-1.55644
78586,-39.0779,-39.5711,-14.7384,1.0945,-1.04851,-1.54553
78649,-38.033,-38.0323,-14.9477,1.09271,-1.04672,-1.53668
78709,-37.0401,-36.6429,-14.6629,1.09274,-1.04511,-1.5304
78768,-36.0647,-35.3173,-15.0804,1.09115,-1.04302,-1.52291
78831,-35.0248,-33.9883,-14.7744,1.09201,-1.04157,-1.51804
78891,-34.046,-32.7666,-14.9128,1.0954,-1.04095,-1.51684
78954,-33.0208,-31.5486,-15.3659,1.09998,-1.04107,-1.51774
79014,-32.0563,-30.4729,-15.0707,1.1026,-1.04067,-1.51618
79073,-31.1303,-29.4572,-14.9523,1.1022,-1.0396,-1.51162
79137,-30.1456,-28.4084,-15.5433,1.10294,-1.03905,-1.50799
79197,-29.2444,-27.5175,-15.2292,1.10209,-1.03824,-1.50293
79256,-28.3807,-26.6748,-14.8771,1.09733,-1.03634,-1.49302
79320,-27.4664,-25.7932,-15.6984,1.09422,-1.03488,-1.48459
79379,-26.6523,-25.0826,-14.7534,1.09294,-1.03433,-1.47874
79443,-25.8002,-24.3067,-14.8451,1.09555,-1.03445,-1.47621
79503,-25.0271,-23.6337,-14.0608,1.09765,-1.03445,-1.47323
79562,-24.2944,-22.973,-14.6267,1.09938,-1.03411,-1.46989
79626,-23.5286,-22.3423,-14.2003,1.10226,-1.03369,-1.46756
79685,-22.853,-21.782,-14.609,1.102,-1.03254,-1.46141
79745,-22.1864,-21.2738,-14.2352,1.10235,-1.03092,-1.45485
79809,-21.501,-20.7493,-14.4026,1.09639,-1.02747,-1.44098
79868,-20.8974,-20.3157,-14.505,1.08939,-1.02362,-1.42726
79928,-20.3052,-19.9138,-15.4993,1.08954,-1.022,-1.42206
79983,-19.79,-19.633,-15.2975,1.09257,-1.02089,-1.42063
80042,-19.2614,-19.3486,-15.1711,1.08955,-1.01802,-1.41234
80135,-18.4539,-18.9299,-14.5196,1.0669,-1.00827,-1.37952
80194,-17.9927,-18.676,-14.6492,1.06225,-1.00486,-1.36988
80254,-17.5441,-18.4502,-15.4102,1.06342,-0.998956,-1.36788
80317,-17.1056,-18.2925,-14.8345,1.05805,-0.995572,-1.35723
80377,-16.7115,-18.1313,-14.7911,1.05167,-0.992242,-1.3464
80436,-16.3414,-17.9888,-15.7703,1.05355,-0.991918,-1.34556
80500,-15.9688,-17.922,-14.2343,1.05257,-0.989933,-1.34007
80559,-15.6473,-17.7896,-14.8994,1.06096,-0.991938,-1.34609
80622,-15.3241,-17.7091,-14.4909,1.07548,-0.995693,-1.35869
80682,-15.0388,-17.6272,-15.3935,1.09103,-0.999329,-1.37161
80741,-14.7779,-17.6158,-15.1847,1.09455,-1.00024,-1.3721
80805,-14.5183,-17.607,-14.6394,1.10465,-1.00286,-1.37808
80864,-14.297,-17.5803,-15.1307,1.1084,-1.00322,-1.37725
80924,-14.098,-17.601,-15.4096,1.11493,-1.00506,-1.37963
80987,-13.907,-17.6516,-15.116,1.1173,-1.00519,-1.37628
81047,-13.7459,-17.6948,-15.1189,1.12068,-1.0055,-1.37433
81110,-13.5898,-17.7475,-14.9908,1.12777,-1.00659,-1.3754
81170,-13.4614,-17.8021,-15.3318,1.13061,-1.00643,-1.37205
81230,-13.3474,-17.8844,-14.9385,1.13543,-1.00719,-1.37071
81293,-13.2434,-17.9537,-15.0221,1.13694,-1.00631,-1.36496
81353,-13.1595,-18.0323,-15.0587,1.13899,-1.00522,-1.35964
81412,-13.0845,-18.1137,-14.7568,1.14247,-1.00437,-1.35597
81476,-13.0173,-18.1892,-14.9363,1.14221,-1.00218,-1.34801
81535,-12.9646,-18.2726,-15.5003,1.14872,-1.00184,-1.34847
81598,-12.916,-18.398,-15.3668,1.14707,-0.999493,-1.33933
81658,-12.8734,-18.507,-15.7547,1.13944,-0.995219,-1.32399
81717,-12.8432,-18.6403,-15.4707,1.14228,-0.994113,-1.32146
81780,-12.8261,-18.7696,-15.5608,1.14189,-0.992496,-1.31642
81840,-12.8214,-18.9008,-15.5089,1.13674,-0.989804,-1.30664
81899,-12.824,-19.0265,-15.5559,1.13745,-0.988857,-1.3037
81962,-12.8357,-19.1642,-15.4951,1.13302,-0.986733,-1.29501
82022,-12.8562,-19.2926,-15.2058,1.12899,-0.985478,-1.28783
82085,-12.8845,-19.4085,-15.1936,1.12584,-0.983983,-1.28068
82145,-12.908,-19.5111,-15.415,1.12217,-0.982446,-1.27313
82204,-12.939,-19.6261,-15.4153,1.11915,-0.981016,-1.2661
82268,-12.9732,-19.746,-15.4246,1.11908,-0.979814,-1.26133
82327,-13.0128,-19.858,-15.3049,1.11981,-0.979186,-1.25782
82387,-13.0568,-19.9626,-15.3561,1.11729,-0.977319,-1.24966
82450,-13.1115,-20.0769,-15.5183,1.12117,-0.977178,-1.24811
82510,-13.1637,-20.1907,-15.3829,1.12557,-0.97715,-1.24733
82573,-13.2213,-20.2987,-15.5521,1.12977,-0.976734,-1.24529
82633,-13.2773,-20.4079,-15.4603,1.13487,-0.97697,-1.24488
82692,-13.3273,-20.5021,-15.3666,1.13922,-0.976805,-1.24324
82756,-13.3825,-20.5946,-15.3859,1.14189,-0.976001,-1.23861
82816,-13.4313,-20.6768,-15.4655,1.14597,-0.975819,-1.23624
82875,-13.4897,-20.7661,-15.5399,1.14934,-0.97546,-1.23356
82939,-13.5584,-20.8672,-15.4833,1.15202,-0.974622,-1.22927
82998,-13.6205,-20.9523,-15.5286,1.15402,-0.973521,-1.22477
83062,-13.6894,-21.0445,-15.5345,1.15578,-0.972557,-1.22013
83152,-13.8,-21.1773,-15.5446,1.15492,-0.97045,-1.21107
83212,-13.8644,-21.2554,-15.5503,1.15583,-0.969743,-1.20776
83275,-13.9359,-21.3369,-15.5571,1.15306,-0.968172,-1.20014
83334,-13.9991,-21.4078,-15.5047,1.15213,-0.96711,-1.19524
83394,-14.0575,-21.4699,-15.4047,1.15038,-0.96567,-1.18948
83457,-14.1097,-21.5197,-15.7469,1.15095,-0.964972,-1.18625
83517,-14.159,-21.585,-15.6726,1.14734,-0.967886,-1.17804
83580,-14.2189,-21.6517,-15.5261,1.14517,-0.966054,-1.17091
83640,-14.2752,-21.7034,-15.5699,1.14625,-0.964992,-1.1674
83699,-14.3307,-21.7547,-15.4839,1.14641,-0.963934,-1.16251
83763,-14.3829,-21.7971,-15.6546,1.14564,-0.962307,-1.15621
83822,-14.4291,-21.8431,-15.5655,1.14653,-0.96123,-1.15167
83882,-14.4745,-21.8816,-15.6454,1.14817,-0.960283,-1.14793
83945,-14.5192,-21.9232,-15.6376,1.14949,-0.959334,-1.14301
84005,-14.5567,-21.9571,-15.6912,1.14848,-0.95768,-1.13496
84068,-14.6026,-21.999,-15.7331,1.14979,-0.95663,-1.13026
84128,-14.6498,-22.0421,-15.7341,1.15023,-0.955595,-1.12462
84188,-14.6931,-22.0808,-15.5979,1.14944,-0.954104,-1.11723
84252,-14.7331,-22.1075,-15.67,1.14932,-0.95243,-1.10994
84311,-14.7671,-22.1332,-15.7438,1.14978,-0.951255,-1.10465
84371,-14.7996,-22.1612,-15.7081,1.14979,-0.94997,-1.09918
84435,-14.832,-22.186,-15.8167,1.14844,-0.948377,-1.09217
84494,-14.8591,-22.2122,-15.6771,1.14628,-0.946528,-1.08408
84553,-14.8786,-22.224,-15.6576,1.14294,-0.944415,-1.07555
84608,-14.9007,-22.2362,-15.7808,1.14259,-0.943254,-1.07094
84667,-14.9263,-22.2573,-15.7238,1.14238,-0.942069,-1.06674
84731,-14.9447,-22.2691,-15.8002,1.14175,-0.940437,-1.06115
84790,-14.9633,-22.2851,-15.6708,1.13944,-0.938307,-1.0535
84849,-14.9835,-22.2941,-15.7623,1.14029,-0.937195,-1.04984
84913,-15.0071,-22.3103,-15.8557,1.14103,-0.935923,-1.04508
84972,-15.0282,-22.3295,-15.8947,1.14168,-0.934801,-1.04081
85032,-15.0477,-22.3492,-15.7181,1.14103,-0.933249,-1.03422
85095,-15.0756,-22.3632,-15.8422,1.14257,-0.932274,-1.02995
85155,-15.0989,-22.3811,-15.8167,1.14226,-0.930645,-1.02354
85219,-15.1187,-22.3942,-15.8986,1.14357,-0.929537,-1.01885
85278,-15.1408,-22.4131,-15.7524,1.14495,-0.928663,-1.01469
85338,-15.1575,-22.4191,-15.8413,1.14634,-0.927431,-1.00964
85401,-15.1736,-22.4295,-15.8226,1.14975,-0.927064,-1.00759
85461,-15.1922,-22.4402,-15.7119,1.15015,-0.925742,-1.00209
85521,-15.2112,-22.4442,-16.5645,1.15239,-0.924944,-0.998669
85585,-15.2416,-22.5086,-15.9569,1.15536,-0.924643,-0.996018
85644,-15.2674,-22.5289,-15.6431,1.15567,-0.923407,-0.990782
85720,-15.2976,-22.5285,-15.4012,1.1571,-0.923,-0.986371
85782,-15.3156,-22.5088,-15.9441,1.15964,-0.922717,-0.984042
85844,-15.3302,-22.5206,-16.0084,1.15978,-0.922105,-0.97969
85909,-15.341,-22.5334,-15.9796,1.16281,-0.922162,-0.9785
85971,-15.3493,-22.5419,-16.0577,1.16294,-0.921219,-0.973778
86033,-15.3662,-22.5608,-15.9838,1.1629,-0.920422,-0.968923
86131,-15.389,-22.5793,-15.8906,1.16531,-0.919866,-0.96442
86193,-15.406,-22.5865,-16.0972,1.1665,-0.919607,-0.961031
86258,-15.4146,-22.6005,-15.7764,1.16736,-0.919063,-0.95618
86320,-15.4223,-22.5934,-15.9549,1.16887,-0.918685,-0.952813
86381,-15.425,-22.594,-15.9676,1.17063,-0.918244,-0.948886
86447,-15.4276,-22.5952,-16.2501,1.17074,-0.916984,-0.9427
86509,-15.4268,-22.6112,-16.0055,1.17465,-0.91678,-0.940851
86570,-15.4328,-22.6164,-16.0015,1.17596,-0.915947,-0.936144
86636,-15.4404,-22.6222,-16.4135,1.17805,-0.915089,-0.93171
86698,-15.446,-22.6514,-16.083,1.18044,-0.914751,-0.928583
86763,-15.4509,-22.659,-16.0192,1.18235,-0.913891,-0.924028
86825,-15.4512,-22.659,-16.0876,1.18223,-0.912809,-0.917988
86887,-15.4497,-22.662,-16.1932,1.18328,-0.911916,-0.913265
86952,-15.452,-22.6743,-16.1142,1.18467,-0.910946,-0.908869
87014,-15.4563,-22.6822,-16.0923,1.18702,-0.910705,-0.906257
87076,-15.4551,-22.6846,-16.0045,1.18749,-0.909838,-0.901596
87142,-15.4598,-22.6855,-16.0596,1.18845,-0.909252,-0.897555
87204,-15.4657,-22.6907,-16.1433,1.18847,-0.908114,-0.892386
87270,-15.4772,-22.705,-16.0915,1.19058,-0.907965,-0.888958
87331,-15.4905,-22.7164,-16.0516,1.192,-0.907439,-0.885906
87393,-15.5027,-22.7241,-16.0964,1.19294,-0.906912,-0.882174
87459,-15.5086,-22.7301,-15.9653,1.19367,-0.905996,-0.877524
87521,-15.5161,-22.7287,-16.0178,1.19527,-0.905352,-0.874145
87582,-15.5198,-22.7281,-16.0412,1.19542,-0.904475,-0.868739
87648,-15.523,-22.7283,-16.0683,1.19771,-0.904023,-0.865448
87709,-15.5326,-22.7348,-16.0948,1.19893,-0.903169,-0.861267
87775,-15.5373,-22.7393,-16.0107,1.20012,-0.902392,-0.85669
87836,-15.5408,-22.7376,-15.8818,1.20325,-0.902209,-0.855
87898,-15.5407,-22.7257,-16.0111,1.20395,-0.901365,-0.85035
87963,-15.545,-22.7249,-16.589,1.20619,-0.9007,-0.846646
88025,-15.5522,-22.7614,-15.8756,1.20783,-0.900117,-0.842892
88087,-15.5594,-22.7531,-16.1901,1.20879,-0.89943,-0.83784
88153,-15.5606,-22.7605,-16.6362,1.20531,-0.898724,-0.833312
88214,-15.5647,-22.7957,-16.2521,1.20396,-0.8976,-0.825679
88280,-15.5725,-22.8096,-16.3889,1.2011,-0.895552,-0.815386
88342,-15.5816,-22.8317,-15.9384,1.19947,-0.893898,-0.806996
88404,-15.5907,-22.8255,-16.285,1.19898,-0.892479,-0.800257
88469,-15.6028,-22.8431,-16.4003,1.20024,-0.891575,-0.795418
88531,-15.6122,-22.8646,-16.0895,1.20356,-0.891167,-0.793247
88593,-15.6245,-22.8684,-16.1212,1.20635,-0.890805,-0.79089
88659,-15.6406,-22.8764,-16.2707,1.21003,-0.890815,-0.789481
88720,-15.6591,-22.8948,-16.8839,1.21463,-0.891012,-0.789902
88786,-15.6716,-22.9483,-16.2837,1.21657,-0.890584,-0.786495
88848,-15.6861,-22.9617,-16.3105,1.21558,-0.889248,-0.780002
88910,-15.6989,-22.9751,-16.0211,1.21476,-0.888093,-0.773853
88976,-15.7081,-22.967,-16.2639,1.2138,-0.887112,-0.767314
89037,-15.7109,-22.9703,-16.063,1.21477,-0.886458,-0.763013
89099,-15.6982,-22.9506,-16.1625,1.22178,-0.886569,-0.760199
89165,-15.6942,-22.9436,-16.6593,1.22403,-0.886416,-0.756621
89259,-15.6834,-22.9759,-16.0728,1.22605,-0.886035,-0.750123
89321,-15.6774,-22.9612,-16.2176,1.23128,-0.886785,-0.750149
89387,-15.678,-22.9604,-16.1529,1.23197,-0.886624,-0.744248
89448,-15.6785,-22.9558,-16.1609,1.22964,-0.885505,-0.734213
89514,-15.6895,-22.9589,-16.0719,1.22884,-0.884672,-0.72644
89576,-15.7044,-22.9593,-16.1935,1.22868,-0.883916,-0.719793
89637,-15.7165,-22.9652,-17.7224,1.23157,-0.883507,-0.715411
89703,-15.7307,-23.0707,-16.4889,1.23504,-0.883361,-0.713407
89765,-15.752,-23.0961,-16.9119,1.2361,-0.882738,-0.709488
89827,-15.7783,-23.1495,-16.6575,1.23701,-0.882206,-0.705801
89892,-15.8043,-23.1858,-15.6068,1.23723,-0.886179,-0.701903
89954,-15.8232,-23.1511,-17.0874,1.23447,-0.884737,-0.694907
90020,-15.8463,-23.2132,-16.4037,1.2382,-0.884749,-0.694393
90082,-15.8778,-23.2344,-16.1136,1.24129,-0.884646,-0.693559
90144,-15.9165,-23.242,-16.3881,1.24196,-0.883693,-0.689339
90210,-15.9471,-23.2602,-16.0995,1.24076,-0.88251,-0.682119
90272,-15.9655,-23.2518,-17.2028,1.2401,-0.881418,-0.675996
90333,-15.9865,-23.3118,-17.2669,1.24174,-0.881031,-0.67215
90399,-16.0099,-23.3785,-16.6312,1.24393,-0.88084,-0.668308
90461,-16.0411,-23.4062,-16.5608,1.24408,-0.880035,-0.662179
90527,-16.0718,-23.428,-15.6852,1.24488,-0.879302,-0.656424
90589,-16.0909,-23.3878,-16.3512,1.24793,-0.879317,-0.653688
90651,-16.1151,-23.3932,-16.6954,1.25061,-0.879504,-0.651366
90716,-16.14,-23.4202,-15.6616,1.25455,-0.879828,-0.649524
90778,-16.1665,-23.384,-16.3642,1.2548,-0.879294,-0.644395
90839,-16.1871,-23.388,-16.5106,1.25643,-0.87925,-0.640604
90905,-16.2098,-23.402,-16.423,1.25887,-0.879124,-0.637644
90967,-16.2246,-23.4047,-16.1554,1.26019,-0.878758,-0.634021
91032,-16.2447,-23.3935,-16.6536,1.25945,-0.877979,-0.627162
91094,-16.274,-23.4206,-16.477,1.25903,-0.87703,-0.621474
91156,-16.2983,-23.4323,-16.4964,1.26201,-0.876742,-0.619878
91222,-16.3261,-23.4468,-16.1535,1.26479,-0.876459,-0.617669
91283,-16.3446,-23.4342,-16.1266,1.26719,-0.876275,-0.615102
91345,-16.364,-23.4207,-16.5535,1.26927,-0.875937,-0.61133
91410,-16.3793,-23.4308,-16.7043,1.2703,-0.875156,-0.606481
91472,-16.3926,-23.4483,-16.1589,1.27259,-0.874629,-0.603425
91537,-16.399,-23.4259,-16.2748,1.27575,-0.874174,-0.600272
91599,-16.3958,-23.4061,-16.493,1.27731,-0.873748,-0.59585
91661,-16.3945,-23.4017,-16.5821,1.27815,-0.873154,-0.590644
91726,-16.395,-23.4042,-16.5065,1.28019,-0.87271,-0.586299
91788,-16.3887,-23.3973,-16.3137,1.28296,-0.872645,-0.584205
91850,-16.3953,-23.3879,-16.4001,1.2837,-0.872353,-0.579332
91916,-16.404,-23.385,-16.5064,1.28707,-0.872602,-0.577517
91977,-16.4079,-23.3859,-16.4299,1.28925,-0.872685,-0.574525
92043,-16.4045,-23.3768,-20.2966,1.29278,-0.873098,-0.572449
92105,-16.414,-23.6118,-15.7255,1.29542,-0.873,-0.56866
92167,-16.4377,-23.5693,-16.9346,1.29545,-0.872385,-0.562686
92233,-16.4674,-23.6072,-16.45,1.29975,-0.872753,-0.562067
92329,-16.5179,-23.6192,-16.5628,1.29919,-0.872175,-0.553375
92390,-16.5476,-23.6315,-16.4546,1.30232,-0.872422,-0.552274
92456,-16.5662,-23.6279,-16.4928,1.30565,-0.872803,-0.551367
92517,-16.5784,-23.6235,-16.5396,1.30662,-0.872777,-0.547986
92583,-16.5877,-23.6193,-16.5027,1.30799,-0.8731,-0.54551
92644,-16.5981,-23.6146,-16.6555,1.30787,-0.872959,-0.542029
92706,-16.6031,-23.6155,-16.611,1.30952,-0.873617,-0.541414
92772,-16.6126,-23.6164,-16.4548,1.31195,-0.874522,-0.541955
92833,-16.6186,-23.606,-16.4681,1.31172,-0.875042,-0.539663
92895,-16.6232,-23.5956,-16.3471,1.30824,-0.874541,-0.532165
92961,-16.6278,-23.577,-16.1919,1.30703,-0.874508,-0.526552
93023,-16.6292,-23.5489,-16.1717,1.30817,-0.874573,-0.523401
93088,-16.6351,-23.5224,-16.4044,1.31076,-0.87452,-0.520695
93150,-16.6419,-23.5133,-16.2954,1.31226,-0.873917,-0.515416
93212,-16.6376,-23.4902,-16.3884,1.31479,-0.873192,-0.510442
93278,-16.6356,-23.4745,-16.3874,1.31897,-0.872634,-0.507101
93340,-16.6308,-23.4584,-16.4588,1.32204,-0.876869,-0.502638
93401,-16.6238,-23.4458,-16.4955,1.32534,-0.876093,-0.499159
93467,-16.6092,-23.4304,-16.5876,1.32828,-0.875494,-0.495144
93529,-16.5956,-23.4222,-16.4526,1.33064,-0.874805,-0.490048
93591,-16.5767,-23.4025,-16.5706,1.33312,-0.874693,-0.486836
93657,-16.558,-23.391,-16.6002,1.33553,-0.874691,-0.484148
93718,-16.5456,-23.386,-16.4539,1.33561,-0.874639,-0.480049
93784,-16.5329,-23.3719,-16.5006,1.33846,-0.875228,-0.479957
93845,-16.5184,-23.3603,-16.5398,1.33959,-0.875759,-0.477912
93907,-16.5026,-23.3507,-16.4843,1.33838,-0.876047,-0.473369
93973,-16.5013,-23.3481,-16.5087,1.33794,-0.876363,-0.469596
94034,-16.4968,-23.3449,-16.4094,1.33929,-0.876699,-0.467258
94096,-16.491,-23.335,-16.3101,1.3397,-0.876638,-0.463089
94162,-16.4854,-23.3188,-16.3546,1.3408,-0.876594,-0.458644
94223,-16.4799,-23.307,-16.3632,1.34302,-0.876382,-0.455285
94289,-16.4769,-23.2974,-16.3045,1.34574,-0.876036,-0.451241
94351,-16.4689,-23.2816,-16.4378,1.3482,-0.875479,-0.447288
94412,-16.4534,-23.2694,-16.4663,1.35188,-0.87503,-0.444167
94478,-16.4375,-23.2591,-16.3786,1.35553,-0.874335,-0.440254
94540,-16.4281,-23.2485,-16.581,1.35893,-0.873685,-0.436816
94602,-16.4153,-23.2483,-16.6358,1.36081,-0.872822,-0.432523
94667,-16.4103,-23.2573,-16.7146,1.36212,-0.872215,-0.428372
94729,-16.4086,-23.2725,-16.7139,1.36356,-0.871944,-0.424787
94795,-16.4035,-23.2856,-16.6131,1.36428,-0.871842,-0.420533
94857,-16.4012,-23.293,-16.5085,1.36599,-0.871868,-0.417995
94918,-16.3928,-23.2894,-16.532,1.36715,-0.871831,-0.414725
94984,-16.3952,-23.2952,-16.5109,1.36724,-0.871893,-0.410065
95046,-16.4022,-23.3024,-16.5432,1.36813,-0.87228,-0.40687
95108,-16.4065,-23.3093,-16.399,1.36906,-0.872584,-0.403319
95174,-16.4069,-23.3043,-16.5257,1.37052,-0.872755,-0.399586
95236,-16.4109,-23.3099,-16.4572,1.37231,-0.872773,-0.39588
95302,-16.4144,-23.3107,-17.1211,1.37403,-0.872568,-0.391567
95398,-16.419,-23.373,-16.6559,1.3788,-0.872093,-0.387117
95459,-16.4217,-23.3826,-16.3675,1.3815,-0.871691,-0.383578
95525,-16.4236,-23.3731,-17.6479,1.38328,-0.870935,-0.378897
95587,-16.429,-23.4449,-16.5613,1.38508,-0.870296,-0.374893
95648,-16.43,-23.4446,-16.6112,1.38714,-0.869687,-0.371076
95714,-16.4261,-23.444,-17.3069,1.38946,-0.869283,-0.367853
95776,-16.4253,-23.4878,-16.6722,1.39056,-0.868977,-0.363438
95842,-16.4248,-23.4915,-16.5779,1.39166,-0.868861,-0.359128
95903,-16.4274,-23.4913,-16.641,1.39309,-0.868866,-0.35593
95965,-16.431,-23.4957,-16.6503,1.39449,-0.869016,-0.352376
96031,-16.4458,-23.5082,-16.5499,1.39529,-0.869365,-0.347939
96093,-16.4561,-23.5109,-16.6568,1.39645,-0.869599,-0.343913
96155,-16.4629,-23.5176,-16.596,1.39849,-0.869907,-0.341351
96221,-16.4688,-23.5195,-16.6252,1.40018,-0.87,-0.337265
96283,-16.4667,-23.5177,-16.6604,1.40127,-0.870158,-0.333116
96348,-16.4708,-23.5225,-16.4118,1.4028,-0.870101,-0.329479
96410,-16.4871,-23.5204,-16.4873,1.40489,-0.87,-0.326405
96472,-16.4936,-23.5161,-16.6284,1.40688,-0.869636,-0.32302
96538,-16.4929,-23.5156,-16.5746,1.40891,-0.869198,-0.318322
96600,-16.4926,-23.5122,-16.6129,1.41056,-0.868801,-0.314355
96662,-16.4934,-23.512,-16.6039,1.41212,-0.868288,-0.310322
96741,-16.4922,-23.5095,-16.5846,1.41317,-0.867649,-0.304588
96802,-16.489,-23.5049,-16.5769,1.41477,-0.867213,-0.300875
96867,-16.487,-23.5008,-16.6295,1.4166,-0.866945,-0.297249
96929,-16.4866,-23.5012,-16.672,1.41776,-0.866821,-0.293314
96990,-16.4813,-23.5008,-16.6824,1.41898,-0.866967,-0.289265
97056,-16.4849,-23.5075,-16.6177,1.4206,-0.866991,-0.285164
97118,-16.4818,-23.505,-16.7157,1.42236,-0.867198,-0.28156
97179,-16.4779,-23.508,-16.5706,1.42391,-0.867448,-0.277689
97245,-16.474,-23.502,-16.6909,1.42586,-0.867815,-0.273819
97307,-16.4802,-23.5106,-16.583,1.42805,-0.868159,-0.27034
97372,-16.4928,-23.5167,-16.5471,1.42961,-0.868228,-0.266535
97434,-16.5032,-23.519,-16.5963,1.43104,-0.868503,-0.262627
97496,-16.5045,-23.5178,-16.6247,1.433,-0.86849,-0.259287
97561,-16.5159,-23.5254,-16.6179,1.43492,-0.868222,-0.25516
97623,-16.525,-23.5307,-16.5498,1.43646,-0.868043,-0.251208
97685,-16.5422,-23.5371,-16.6292,1.43783,-0.867676,-0.247414
97750,-16.5463,-23.5391,-16.6549,1.43911,-0.867359,-0.243048
97812,-16.5469,-23.5401,-16.6061,1.4403,-0.866986,-0.2389
97878,-16.5471,-23.5377,-16.6807,1.44162,-0.866562,-0.234585
97940,-16.5371,-23.533,-16.6955,1.44314,-0.86656,-0.230897
98001,-16.5268,-23.5292,-16.7296,1.44458,-0.866534,-0.22716
98067,-16.5159,-23.5276,-16.6451,1.44629,-0.866559,-0.222984
98129,-16.5086,-23.5231,-16.7477,1.44797,-0.866658,-0.219249
98191,-16.4956,-23.521,-16.6069,1.44947,-0.866851,-0.215468
98257,-16.4957,-23.5195,-16.5844,1.45104,-0.86719,-0.21148
98319,-16.5101,-23.5266,-16.6772,1.45332,-0.867542,-0.208346
98381,-16.5224,-23.5377,-16.6209,1.45485,-0.86799,-0.20446
98482,-16.5322,-23.5421,-16.5761,1.45738,-0.868618,-0.198684
98544,-16.5389,-23.5425,-16.5498,1.45866,-0.86874,-0.194383
98609,-16.5423,-23.5386,-16.6778,1.46078,-0.868811,-0.19038
98671,-16.5556,-23.5498,-16.6656,1.46241,-0.868615,-0.186811
98733,-16.5644,-23.5568,-16.6545,1.46405,-0.868418,-0.182654
98798,-16.5692,-23.5599,-16.6582,1.46529,-0.868213,-0.177963
98860,-16.5726,-23.5622,-16.6525,1.46757,-0.868018,-0.174522
98922,-16.5699,-23.5598,-16.6347,1.46877,-0.867628,-0.170641
98987,-16.5677,-23.5567,-16.646,1.47023,-0.867282,-0.166564
99049,-16.5636,-23.5532,-16.7013,1.47222,-0.867019,-0.16307
99115,-16.5581,-23.5524,-16.7579,1.47334,-0.867094,-0.158519
99177,-16.5606,-23.5605,-16.6458,1.4752,-0.867156,-0.154947
99239,-16.5709,-23.5668,-16.6157,1.4771,-0.867482,-0.15152
99305,-16.5843,-23.5728,-16.6802,1.47866,-0.867818,-0.147648
99366,-16.5926,-23.5793,-16.6948,1.48009,-0.868291,-0.144254
99428,-16.5977,-23.5841,-16.674,1.48216,-0.868699,-0.141104
99494,-16.5978,-23.5841,-16.6509,1.48319,-0.869183,-0.136461
99556,-16.5982,-23.5828,-16.6277,1.48424,-0.869565,-0.132407
99622,-16.6058,-23.585,-16.5413,1.48661,-0.86986,-0.129358
99683,-16.6106,-23.5802,-16.5702,1.48813,-0.87,-0.125714
99745,-16.6104,-23.5738,-16.6184,1.48927,-0.869908,-0.121163
99811,-16.6078,-23.5687,-16.6225,1.4912,-0.86963,-0.117338
99872,-16.6056,-23.5646,-16.7337,1.49244,-0.86943,-0.113076
99934,-16.6055,-23.5689,-16.6933,1.49284,-0.873965,-0.10804
99999,-16.5988,-23.566,-16.6558,1.49514,-0.873873,-0.104201
100061,-16.5968,-23.5641,-16.6502,1.49593,-0.873867,-0.0997071
100127,-16.5873,-23.5567,-16.6388,1.49753,-0.873833,-0.0960612
100188,-16.5789,-23.5498,-16.6803,1.49943,-0.873839,-0.0926588
100250,-16.568,-23.544,-16.6664,1.5007,-0.873904,-0.0886041
100316,-16.5545,-23.5358,-16.6025,1.50278,-0.874174,-0.0846986
100378,-16.5364,-23.5209,-16.7051,1.50485,-0.874711,-0.0813002
100439,-16.5239,-23.5166,-16.7023,1.50592,-0.875083,-0.0772094
100505,-16.5133,-23.5141,-16.6856,1.50802,-0.875603,-0.0735965
100567,-16.5055,-23.5122,-16.6937,1.50962,-0.875993,-0.0699697
100632,-16.5009,-23.5134,-16.5505,1.51145,-0.876357,-0.0660797
100694,-16.4968,-23.5059,-17.0141,1.51335,-0.876647,-0.0627045
100756,-16.5045,-23.535,-17.412,1.51442,-0.876772,-0.0587813
100822,-16.5109,-23.5892,-16.5005,1.51589,-0.876654,-0.0543687
100884,-16.5197,-23.5844,-16.5676,1.5171,-0.8765,-0.0504707
100945,-16.5223,-23.5797,-16.6503,1.51798,-0.876317,-0.0461712
101011,-16.5285,-23.5824,-16.6053,1.51952,-0.8762,-0.0420812
101073,-16.5283,-23.578,-16.6939,1.52069,-0.875858,-0.038055
101139,-16.5326,-23.5824,-16.6794,1.52231,-0.875845,-0.0338663
101201,-16.5347,-23.5841,-16.614,1.52364,-0.875888,-0.0298112
101263,-16.537,-23.582,-16.6239,1.52421,-0.875898,-0.0251963
101329,-16.5325,-23.5755,-16.6073,1.52634,-0.876182,-0.0217706
101391,-16.5345,-23.5731,-16.7027,1.52816,-0.876566,-0.0186314
101488,-16.5465,-23.5845,-16.518,1.53053,-0.877429,-0.012032
101554,-16.5555,-23.5804,-16.755,1.53255,-0.877994,-0.00870984
101615,-16.561,-23.5891,-16.4365,1.53899,-0.878543,-0.00488452
101681,-16.5693,-23.5791,-16.763,1.54091,-0.879124,-0.0015344
101743,-16.5647,-23.5814,-16.6055,1.54166,-0.879588,0.00311732
101805,-16.5524,-23.5687,-16.5097,1.54347,-0.880015,0.00663979
101871,-16.5395,-23.5497,-16.4797,1.54536,-0.880234,0.0105145
101932,-16.5318,-23.5341,-16.4703,1.54172,-0.880431,0.0153519
101994,-16.5311,-23.5233,-16.4758,1.54454,-0.880371,0.0176673
102060,-16.5326,-23.5142,-16.5329,1.54638,-0.88039,0.0214002
102122,-16.5336,-23.5091,-16.5781,1.547,-0.880253,0.0266629
102188,-16.5302,-23.5039,-16.6566,1.54883,-0.880244,0.0299896
102250,-16.5296,-23.5057,-16.6013,1.54964,-0.880125,0.0346195
102311,-16.5254,-23.5016,-16.6533,1.55119,-0.880181,0.0387492
102377,-16.5246,-23.5033,-16.535,1.55433,-0.880271,0.0413114
102438,-16.5238,-23.4977,-16.6541,1.55397,-0.880581,0.0471443
102500,-16.5268,-23.5021,-16.5401,1.55529,-0.880936,0.051225
102566,-16.5353,-23.5029,-16.6467,1.55735,-0.881372,0.0539945
102628,-16.533,-23.503,-16.5641,1.55806,-0.881977,0.058834
102694,-16.5308,-23.498,-16.6114,1.55962,-0.88271,0.0631592
102755,-16.5316,-23.4983,-16.5339,1.56229,-0.883348,0.0655138
102817,-16.5328,-23.4941,-16.4977,1.56351,-0.883991,0.0695489
102882,-16.5359,-23.4889,-16.5133,1.5645,-0.884548,0.0744772
102944,-16.535,-23.4825,-16.4205,1.56654,-0.884915,0.0777394
103006,-16.5327,-23.4697,-16.4495,1.56402,-0.8853,0.0812383
103071,-16.5349,-23.462,-16.49,1.56452,-0.885299,0.0862593
103133,-16.5357,-23.4565,-16.5485,1.56665,-0.885399,0.0896979
103198,-16.5321,-23.4516,-16.5286,1.56766,-0.885349,0.0944006
103260,-16.5234,-23.4423,-16.5987,1.56816,-0.885228,0.0995712
103322,-16.5103,-23.4346,-16.5503,1.57096,-0.885208,0.101755
103387,-16.5068,-23.4309,-16.5499,1.57136,-0.885112,0.10699
103449,-16.5037,-23.4276,-16.5787,1.57195,-0.885189,0.112043
103511,-16.5031,-23.428,-16.671,1.57408,-0.885341,0.11453
103576,-16.4952,-23.4292,-16.5851,1.57471,-0.885671,0.119612
103638,-16.4848,-23.4231,-16.5536,1.57503,-0.886043,0.124578
103704,-16.4791,-23.4185,-16.5838,1.57883,-0.88651,0.125691
103765,-16.472,-23.4151,-16.5949,1.57868,-0.88704,0.131553
103827,-16.4676,-23.4143,-16.5556,1.58053,-0.887686,0.135177
103893,-16.4711,-23.4167,-16.4656,1.58409,-0.888422,0.136534
103955,-16.4747,-23.4136,-16.4574,1.58366,-0.889155,0.142647
104016,-16.4848,-23.4147,-16.5069,1.58575,-0.889759,0.145501
104082,-16.4937,-23.4177,-16.5157,1.58768,-0.890117,0.148953
104144,-16.4934,-23.4148,-16.4069,1.5881,-0.890443,0.154423
104210,-16.4993,-23.4092,-16.4099,1.59044,-0.890641,0.157849
104272,-16.4902,-23.3943,-16.5006,1.59304,-0.890612,0.159931
104334,-16.4856,-23.3886,-16.475,1.59249,-0.890612,0.166646
104400,-16.4785,-23.3796,-16.4586,1.59369,-0.890516,0.171068
104461,-16.4773,-23.3744,-16.4717,1.59591,-0.890347,0.173654
104560,-16.4815,-23.3718,-16.5583,1.59737,-0.890321,0.181148
104626,-16.4926,-23.3816,-16.474,1.60019,-0.890629,0.183664
104688,-16.4963,-23.3805,-16.5811,1.60058,-0.890986,0.1885
104753,-16.4979,-23.3847,-16.5415,1.60184,-0.891408,0.192908
104815,-16.4972,-23.3846,-16.6096,1.60487,-0.891685,0.195215
104877,-16.4907,-23.3846,-16.515,1.60515,-0.892435,0.200065
104942,-16.4875,-23.3811,-16.4303,1.60687,-0.893145,0.203385
105004,-16.4853,-23.3733,-16.5289,1.60975,-0.893498,0.205482
105066,-16.4805,-23.3701,-16.4184,1.6111,-0.894283,0.209573
105132,-16.4711,-23.3567,-16.4201,1.61236,-0.895167,0.214191
105194,-16.467,-23.3481,-16.4394,1.61513,-0.895816,0.21639
105260,-16.4604,-23.339,-16.4488,1.616,-0.896222,0.221469
105321,-16.4693,-23.3419,-15.1572,1.61724,-0.89656,0.226011
105383,-16.4687,-23.2597,-16.5206,1.61894,-0.896541,0.229144
105449,-16.4622,-23.26,-16.4241,1.62044,-0.896459,0.233839
105511,-16.4566,-23.2547,-15.7115,1.621,-0.896643,0.238528
105573,-16.4528,-23.2076,-16.6484,1.62086,-0.896762,0.243501
105632,-16.4466,-23.2171,-16.5623,1.62378,-0.89671,0.245209
105694,-16.4419,-23.2227,-16.098,1.62327,-0.896815,0.251218
105760,-16.4351,-23.1971,-15.5127,1.61842,-0.897187,0.257426
105822,-16.4257,-23.1366,-16.5611,1.62169,-0.897251,0.259491
105883,-16.4132,-23.14,-16.5717,1.62344,-0.897736,0.262977
105949,-16.3975,-23.1427,-16.5177,1.62279,-0.898684,0.269729
106010,-16.386,-23.1438,-16.4846,1.62661,-0.899345,0.270516
106076,-16.3815,-23.1485,-16.4953,1.62819,-0.900274,0.27511
106138,-16.3756,-23.152,-16.5039,1.63023,-0.901216,0.278651
106200,-16.3706,-23.1567,-16.4292,1.63334,-0.902054,0.280771
106265,-16.3725,-23.1614,-16.4134,1.63351,-0.902989,0.286395
106327,-16.3744,-23.1649,-16.1679,1.63568,-0.903622,0.289521
106388,-16.3796,-23.1558,-16.3139,1.63883,-0.903902,0.29037
106454,-16.3882,-23.158,-16.3387,1.63774,-0.904604,0.298007
106516,-16.3903,-23.1572,-16.311,1.6407,-0.904581,0.300102
106582,-16.3907,-23.1534,-16.3671,1.64342,-0.904579,0.302746
106643,-16.3863,-23.1501,-16.3203,1.64322,-0.904801,0.30852
106705,-16.3917,-23.1508,-15.9711,1.64376,-0.904995,0.31366
106771,-16.3929,-23.1259,-16.7578,1.64667,-0.904983,0.315986
106833,-16.3906,-23.1489,-16.4349,1.64723,-0.905164,0.321008
106895,-16.3801,-23.1456,-16.3336,1.64604,-0.905681,0.32885
106960,-16.3691,-23.136,-16.5057,1.64931,-0.905892,0.330821
107022,-16.3641,-23.1414,-16.495,1.65299,-0.905913,0.331987
107088,-16.3596,-23.1467,-16.4095,1.65254,-0.906631,0.338582
107150,-16.359,-23.1489,-16.3704,1.65401,-0.907297,0.342006
107212,-16.3583,-23.1485,-16.4356,1.65627,-0.907911,0.344731
107278,-16.3554,-23.1508,-16.3935,1.65757,-0.908747,0.349741
107340,-16.3535,-23.151,-16.3081,1.66025,-0.909507,0.352508
107402,-16.3481,-23.1434,-16.2668,1.66132,-0.910425,0.357049
107468,-16.3364,-23.129,-16.4111,1.66413,-0.911074,0.359622
107567,-16.3254,-23.1269,-16.259,1.66533,-0.912465,0.366845
107645,-16.3189,-23.1153,-16.27,1.66652,-0.913104,0.372421
107707,-16.3287,-23.1175,-16.3062,1.67062,-0.913171,0.373532
107768,-16.3363,-23.1203,-16.2509,1.6705,-0.913598,0.379622
107834,-16.3429,-23.1186,-16.3103,1.67135,-0.913705,0.384708
107895,-16.3425,-23.1161,-16.3357,1.67361,-0.9137,0.387288
107957,-16.3423,-23.1154,-16.2865,1.67602,-0.914018,0.390225
108023,-16.3472,-23.115,-16.3015,1.67583,-0.914637,0.396631
108084,-16.3567,-23.119,-16.3168,1.67534,-0.915209,0.40298
108150,-16.3588,-23.1184,-16.4538,1.67925,-0.915241,0.404074
108212,-16.3629,-23.1277,-16.3369,1.6789,-0.915991,0.409938
108274,-16.3667,-23.1294,-16.2978,1.67967,-0.916674,0.414508
108340,-16.3584,-23.1199,-16.3728,1.68275,-0.917284,0.415762
108401,-16.3519,-23.1169,-16.2801,1.68238,-0.918224,0.421538
108463,-16.3493,-23.1111,-16.3521,1.68322,-0.919016,0.425658
108529,-16.3537,-23.1148,-16.2109,1.68799,-0.919646,0.425341
108591,-16.3526,-23.106,-16.1961,1.68788,-0.920811,0.431
108656,-16.3483,-23.0939,-16.2051,1.6909,-0.921533,0.432936
108718,-16.3498,-23.0874,-16.1739,1.69313,-0.922158,0.435745
108780,-16.356,-23.0825,-16.2663,1.69227,-0.922768,0.442479
108846,-16.3482,-23.0735,-16.2324,1.69709,-0.922814,0.442811
108907,-16.3379,-23.0614,-16.1918,1.69576,-0.923567,0.449717
108969,-16.3289,-23.0482,-16.1974,1.69451,-0.924088,0.456885
109034,-16.317,-23.0336,-16.272,1.69876,-0.924159,0.457034
109096,-16.3052,-23.0246,-16.242,1.6996,-0.924465,0.461212
109162,-16.2808,-23.0052,-16.2371,1.69998,-0.924906,0.466854
109223,-16.2618,-22.9902,-16.269,1.70357,-0.924962,0.468028
109285,-16.2411,-22.9766,-16.1968,1.69989,-0.925597,0.47265
109350,-16.2267,-22.9635,-16.2724,1.69999,-0.92625,0.478168
109412,-16.2142,-22.957,-16.3199,1.70137,-0.926912,0.48222
109474,-16.1991,-22.9518,-16.176,1.70197,-0.927768,0.487285
109539,-16.178,-22.9339,-16.2637,1.70448,-0.928553,0.490054
109601,-16.1598,-22.9241,-16.1934,1.70766,-0.929286,0.491288
109667,-16.1425,-22.9111,-16.232,1.71029,-0.930204,0.494238
109728,-16.1311,-22.9051,-15.9727,1.71121,-0.931279,0.49874
109790,-16.1265,-22.8883,-16.1,1.71409,-0.931967,0.500496
109856,-16.1141,-22.8743,-16.0912,1.71464,-0.932906,0.505741
109918,-16.1089,-22.8657,-15.9842,1.71744,-0.933409,0.507775
109979,-16.1099,-22.8553,-16.1259,1.72029,-0.933867,0.510159
110045,-16.1065,-22.8507,-16.1282,1.71538,-0.935013,0.521808
110107,-16.1043,-22.8474,-16.0368,1.71458,-0.935546,0.528865
110173,-16.0981,-22.8354,-16.0939,1.71948,-0.935402,0.528597
110235,-16.095,-22.8301,-16.1008,1.72103,-0.935536,0.531986
110297,-16.0929,-22.826,-15.6751,1.7202,-0.936166,0.53819
110363,-16.0912,-22.7949,-17.1579,1.72154,-0.936576,0.542759
110425,-16.0902,-22.8572,-16.1612,1.72198,-0.937059,0.547907
110486,-16.0907,-22.8575,-15.6086,1.7245,-0.937357,0.550374
110591,-16.0864,-22.7984,-15.8947,1.72348,-0.939332,0.560947
110653,-16.091,-22.7879,-15.9703,1.72267,-0.940551,0.56784
110719,-16.0988,-22.7841,-15.6356,1.72224,-0.941738,0.574426
110780,-16.1109,-22.7641,-16.5679,1.72533,-0.942411,0.576464
110842,-16.118,-22.7976,-16.1492,1.73016,-0.942771,0.576623
110908,-16.1282,-22.8065,-16.0256,1.7294,-0.94407,0.583464
110969,-16.1396,-22.8083,-15.9781,1.72931,-0.945135,0.589161
111031,-16.1342,-22.7955,-15.9481,1.72871,-0.946152,0.594752
111097,-16.1261,-22.7789,-16.0868,1.73037,-0.946709,0.59827
111159,-16.1191,-22.7728,-15.8838,1.73069,-0.947201,0.602897
111225,-16.1076,-22.7508,-15.9934,1.73134,-0.947956,0.608495
111287,-16.0928,-22.7349,-16.0448,1.73371,-0.948213,0.611386
111348,-16.0852,-22.7277,-15.6857,1.73478,-0.948439,0.615277
111414,-16.0754,-22.6961,-16.2115,1.73941,-0.948336,0.616076
111476,-16.0664,-22.6997,-16.1043,1.74043,-0.948751,0.620432
111538,-16.0743,-22.7085,-16.1423,1.74173,-0.949113,0.624051
111604,-16.069,-22.7102,-16.1464,1.74583,-0.949335,0.624445
111666,-16.0674,-22.7144,-16.0182,1.74602,-0.950181,0.629306
111732,-16.0548,-22.703,-15.8393,1.74668,-0.951214,0.633996
111793,-16.0385,-22.6789,-15.6357,1.75031,-0.951823,0.635142
111855,-16.0345,-22.6518,-16.0245,1.7508,-0.952761,0.6395
111921,-16.0302,-22.6493,-15.9692,1.75099,-0.954008,0.644705
111982,-16.0262,-22.6438,-16.023,1.75208,-0.955111,0.648519
112044,-16.0236,-22.6427,-15.9407,1.75143,-0.956579,0.654422
112109,-16.0148,-22.6322,-15.692,1.75476,-0.95742,0.655874
112171,-16.0122,-22.6115,-15.8628,1.75575,-0.958268,0.660358
112237,-16.0005,-22.5952,-15.8108,1.75751,-0.959325,0.664617
112299,-15.9953,-22.5816,-15.825,1.75905,-0.960021,0.668346
112360,-15.9921,-22.5708,-15.8782,1.7592,-0.960666,0.673396
112426,-15.9888,-22.5633,-15.8738,1.7611,-0.961154,0.677105
112488,-15.9874,-22.5574,-16.0361,1.7609,-0.9619,0.683187
112549,-15.9754,-22.5542,-15.7841,1.7611,-0.962192,0.688097
112615,-15.9595,-22.5326,-15.8753,1.76238,-0.962811,0.69224
112677,-15.9452,-22.5193,-15.9699,1.76233,-0.96343,0.698345
112743,-15.9298,-22.5116,-15.9348,1.76381,-0.963916,0.702175
112805,-15.9152,-22.5025,-15.904,1.76611,-0.964405,0.705187
112867,-15.9064,-22.4959,-15.8213,1.76645,-0.965467,0.710001
112933,-15.9096,-22.4926,-15.9411,1.76791,-0.966392,0.71402
112995,-15.9102,-22.4952,-15.589,1.773,-0.966806,0.713606
113056,-15.9077,-22.4746,-15.8236,1.77385,-0.967999,0.718442
113122,-15.908,-22.4704,-15.6789,1.77031,-0.970222,0.728767
113184,-15.9054,-22.4558,-15.9429,1.78634,-0.969065,0.71431
113250,-15.8901,-22.4494,-15.7427,1.7883,-0.970293,0.71756
113311,-15.8837,-22.4371,-15.6777,1.78017,-0.973016,0.732839
113373,-15.8844,-22.4262,-15.737,1.78267,-0.973893,0.735809
113439,-15.8772,-22.4135,-16.0331,1.79074,-0.974204,0.732633
113542,-15.8667,-22.4246,-15.9415,1.80301,-0.974828,0.729442
113603,-15.8573,-22.4232,-15.3062,1.7979,-0.977183,0.74144
113669,-15.8594,-22.3892,-15.717,1.79553,-0.979268,0.751252
113730,-15.8535,-22.3783,-15.6772,1.80114,-0.980029,0.750935
113796,-15.8518,-22.3676,-15.7743,1.79814,-0.98261,0.761288
113858,-15.8467,-22.3615,-15.3868,1.80103,-0.983639,0.763692
113919,-15.8496,-22.3382,-15.6192,1.80332,-0.984679,0.766668
113985,-15.8431,-22.3223,-15.6785,1.80466,-0.985998,0.770717
114047,-15.8275,-22.3051,-15.5231,1.81027,-0.986433,0.76929
114109,-15.8158,-22.2819,-15.6119,1.81649,-0.986904,0.767735
114175,-15.8088,-22.2678,-15.6493,1.8084,-0.990152,0.782819
114236,-15.8063,-22.2603,-15.5255,1.80671,-0.99168,0.790013
114302,-15.7993,-22.2416,-15.5661,1.81008,-0.992997,0.792423
114364,-15.7918,-22.2266,-15.5693,1.81461,-0.993601,0.792116
114426,-15.7833,-22.2118,-15.5549,1.82527,-0.993366,0.785497
114491,-15.7685,-22.192,-15.5691,1.836,-0.993133,0.77865
114553,-15.7594,-22.1782,-15.5502,1.84675,-0.992766,0.771816
114615,-15.7552,-22.1673,-15.4585,1.8526,-0.99352,0.770984
114681,-15.7522,-22.1513,-15.5872,1.85974,-0.994244,0.769321
114743,-15.7469,-22.143,-15.0805,1.87199,-0.993595,0.76064
114808,-15.7369,-22.0994,-15.1852,1.87698,-0.994004,0.761317
114870,-15.7324,-22.0696,-15.2191,1.87874,-0.994956,0.765096
114931,-15.7289,-22.044,-15.0475,1.88591,-0.994724,0.762786
114997,-15.7256,-22.0069,-15.306,1.88758,-0.995896,0.76781
115058,-15.7134,-21.9832,-15.4992,1.88521,-0.997712,0.776822
115124,-15.6921,-21.9656,-15.5258,1.88651,-0.999018,0.782765
115186,-15.6728,-21.9519,-15.4818,1.88913,-0.999614,0.785902
115248,-15.6448,-21.9301,-15.3596,1.89259,-1.00031,0.788132
115313,-15.6113,-21.8975,-15.6994,1.89495,-1.0011,0.791603
115375,-15.5827,-21.8908,-15.4412,1.89692,-1.00172,0.794883
115437,-15.5606,-21.8732,-15.2091,1.89747,-1.00274,0.799066
115502,-15.5329,-21.8377,-16.0381,1.89787,-1.00371,0.804
115564,-15.5129,-21.86,-16.0004,1.89659,-1.00487,0.810193
115630,-15.4989,-21.8854,-15.2843,1.8945,-1.00612,0.817469
115691,-15.4826,-21.8627,-15.2717,1.88983,-1.00801,0.827466
115753,-15.4715,-21.8437,-15.3708,1.88263,-1.01011,0.83998
115819,-15.4611,-21.8316,-15.3988,1.88039,-1.01097,0.847025
115881,-15.4464,-21.8191,-15.058,1.88135,-1.01096,0.850222
115942,-15.434,-21.7884,-15.2371,1.88494,-1.01041,0.850482
116008,-15.405,-21.7575,-15.754,1.88449,-1.0109,0.855525
116070,-15.3812,-21.7633,-15.5072,1.88122,-1.01206,0.863964
116136,-15.3656,-21.7602,-15.3128,1.87807,-1.01322,0.872662
116198,-15.3588,-21.751,-14.8968,1.87849,-1.0138,0.876593
116260,-15.3546,-21.7188,-14.7662,1.88146,-1.01366,0.877684
116326,-15.3555,-21.6813,-15.3279,1.88256,-1.01415,0.880916
116388,-15.3477,-21.6757,-15.2571,1.88625,-1.01404,0.881059
116450,-15.347,-21.6709,-15.2677,1.8849,-1.01555,0.887639
116556,-15.3339,-21.6563,-15.4528,1.88634,-1.0172,0.894703
116618,-15.3218,-21.6564,-15.4032,1.8885,-1.01783,0.897306
116684,-15.3148,-21.6574,-15.2766,1.88772,-1.01922,0.90315
116745,-15.3069,-21.6497,-15.1208,1.88633,-1.02111,0.910285
116807,-15.3017,-21.6346,-15.1244,1.88849,-1.02237,0.913615
116873,-15.2946,-21.6186,-15.0335,1.89359,-1.02284,0.912999
116935,-15.2866,-21.5977,-15.1026,1.89071,-1.02424,0.916474
116996,-15.2662,-21.5734,-15.2209,1.88936,-1.02582,0.923558
117062,-15.251,-21.5607,-14.8501,1.89112,-1.02687,0.927814
117124,-15.2385,-21.5281,-14.9097,1.89325,-1.02767,0.93112
117190,-15.2169,-21.493,-15.0806,1.89621,-1.02846,0.934071
117252,-15.2014,-21.4751,-15.1644,1.89783,-1.0292,0.937771
117314,-15.1882,-21.4648,-15.2691,1.89689,-1.03035,0.944041
117380,-15.1798,-21.4648,-15.0769,1.89554,-1.03172,0.951183
117441,-15.1748,-21.4554,-14.9227,1.89609,-1.03251,0.954799
117503,-15.1603,-21.4302,-15.1502,1.89763,-1.03315,0.957778
117569,-15.1493,-21.4224,-15.082,1.90163,-1.0333,0.957592
117631,-15.1417,-21.4132,-15.06,1.89855,-1.03523,0.965742
117697,-15.1379,-21.4053,-14.8551,1.89541,-1.03698,0.974807
117759,-15.1343,-21.3858,-15.1853,1.89725,-1.0372,0.977376
117820,-15.1319,-21.3879,-15.4993,1.90102,-1.03707,0.978235
117886,-15.1248,-21.4072,-14.7666,1.89706,-1.03878,0.989084
117947,-15.1196,-21.3815,-15.0454,1.89563,-1.04008,0.99668
118009,-15.1228,-21.3793,-15.0695,1.89421,-1.04134,1.00386
118075,-15.1211,-21.3749,-15.2688,1.8969,-1.04164,1.00678
118136,-15.1313,-21.3913,-15.2211,1.9006,-1.04198,1.00818
118202,-15.1304,-21.3968,-15.0156,1.90069,-1.04333,1.01412
118264,-15.142,-21.3979,-14.9716,1.8995,-1.04529,1.02139
118326,-15.1436,-21.3893,-14.7806,1.90182,-1.0464,1.02442
118392,-15.1465,-21.3691,-14.8585,1.90701,-1.04715,1.02492
118454,-15.1471,-21.3543,-15.0093,1.91457,-1.04715,1.02207
118516,-15.1565,-21.3553,-15.2084,1.92651,-1.04614,1.01439
118594,-15.1718,-21.374,-14.9583,1.92536,-1.04873,1.02284
118655,-15.1904,-21.3776,-14.7242,1.92291,-1.05099,1.03118
118721,-15.1943,-21.355,-14.8927,1.92181,-1.05304,1.03798
118783,-15.1998,-21.3463,-14.5708,1.92156,-1.05456,1.04335
118844,-15.192,-21.3096,-14.8638,1.93007,-1.05413,1.03908
118910,-15.1753,-21.2848,-14.9979,1.92817,-1.05593,1.04636
118972,-15.1683,-21.2768,-14.8412,1.92318,-1.0582,1.05607
119034,-15.1594,-21.2583,-14.5745,1.91971,-1.06014,1.06467
119099,-15.1374,-21.214,-14.7184,1.91726,-1.06148,1.07198
119161,-15.1185,-21.1838,-14.7505,1.91811,-1.06199,1.07532
119227,-15.0909,-21.15,-14.5497,1.91922,-1.06232,1.07855
119289,-15.0647,-21.1072,-14.7624,1.91815,-1.06325,1.08426
119351,-15.0403,-21.0805,-14.694,1.91465,-1.06465,1.09359
119460,-15.0235,-21.0468,-14.9337,1.91158,-1.06662,1.10623
119521,-15.0165,-21.045,-15.0665,1.90986,-1.06773,1.11349
119583,-15.0094,-21.0514,-14.8045,1.91079,-1.06839,1.11783
119649,-14.996,-21.0369,-14.9805,1.91397,-1.06859,1.12039
119710,-14.9774,-21.0303,-14.7681,1.91943,-1.07348,1.11961
119776,-14.9663,-21.016,-14.6303,1.91636,-1.07531,1.1292
119838,-14.9552,-20.9944,-14.3455,1.91339,-1.07688,1.13763
119899,-14.9468,-20.9587,-14.7058,1.91821,-1.07706,1.13769
119965,-14.9334,-20.9421,-14.9757,1.92262,-1.07718,1.1386
120027,-14.9191,-20.9423,-14.8486,1.91918,-1.07893,1.14747
120089,-14.9103,-20.9387,-14.7573,1.90935,-1.08208,1.16344
120154,-14.9077,-20.9338,-14.5855,1.9014,-1.08443,1.17821
120216,-14.8936,-20.9109,-14.9299,1.89767,-1.08569,1.18753
120282,-14.8785,-20.9097,-14.8604,1.89781,-1.08654,1.19321
120344,-14.8687,-20.9075,-15.2424,1.90274,-1.08673,1.19324
120406,-14.8559,-20.9265,-15.2202,1.9046,-1.08747,1.19657
120472,-14.8482,-20.9484,-14.5347,1.89828,-1.0898,1.20923
120533,-14.8449,-20.9295,-15.1578,1.89206,-1.09208,1.222
120595,-14.8387,-20.947,-15.3977,1.88672,-1.09417,1.23382
120661,-14.8328,-20.9807,-14.8048,1.88899,-1.09486,1.23727
120722,-14.8451,-20.9874,-15.4414,1.8934,-1.09542,1.23824
120788,-14.8485,-21.0285,-14.3773,1.89323,-1.09681,1.24378
120850,-14.8535,-21.0021,-14.5165,1.88392,-1.09993,1.25993
120911,-14.8647,-20.9899,-14.6758,1.87778,-1.10218,1.27125
120977,-14.8765,-20.9873,-14.5733,1.88249,-1.10262,1.27062
121038,-14.8835,-20.9762,-14.5956,1.89082,-1.10217,1.26535
121104,-14.8846,-20.9617,-14.6823,1.89095,-1.10328,1.27037
121166,-14.8692,-20.9426,-14.6232,1.88636,-1.1053,1.27979
121228,-14.8659,-20.929,-14.5724,1.88172,-1.10749,1.28998
121293,-14.8651,-20.9141,-14.6146,1.88284,-1.10878,1.2933
121355,-14.8593,-20.8995,-14.7754,1.8878,-1.10917,1.29182
121417,-14.8628,-20.9018,-14.6918,1.89371,-1.10946,1.29034
121483,-14.8642,-20.8971,-14.5418,1.89339,-1.11073,1.29555
121544,-14.8567,-20.8779,-15.0639,1.89117,-1.11236,1.30235
121610,-14.8498,-20.8925,-14.264,1.89158,-1.11368,1.30583
121672,-14.8454,-20.8586,-14.5019,1.89328,-1.11471,1.30794
121734,-14.8329,-20.8349,-14.4271,1.89351,-1.11613,1.31154
121799,-14.8198,-20.8064,-14.1822,1.89328,-1.11772,1.31567
121861,-14.8174,-20.7727,-14.5439,1.88979,-1.11964,1.32353
121923,-14.8155,-20.7625,-14.5153,1.89068,-1.12048,1.32619
121989,-14.8191,-20.7543,-14.3681,1.89429,-1.12079,1.32665
122051,-14.8227,-20.7382,-14.5722,1.89115,-1.1222,1.33433
122117,-14.8308,-20.7378,-14.4337,1.88789,-1.12341,1.34267
122179,-14.8398,-20.7301,-14.4761,1.88864,-1.12399,1.34633
122241,-14.8495,-20.7257,-14.4171,1.88794,-1.12486,1.35219
122307,-14.8501,-20.7108,-14.4588,1.88659,-1.12581,1.35954
122411,-14.8511,-20.6929,-14.5354,1.89375,-1.12606,1.36082
122473,-14.847,-20.6841,-14.4578,1.89337,-1.12724,1.36637
122539,-14.8539,-20.678,-14.473,1.89784,-1.12797,1.36729
122600,-14.8492,-20.6659,-14.4796,1.89835,-1.12906,1.3718
122666,-14.8353,-20.6477,-14.4995,1.89813,-1.13068,1.3771
122728,-14.8282,-20.6367,-14.3494,1.89916,-1.13187,1.38065
122790,-14.8197,-20.616,-14.3672,1.89938,-1.13339,1.38519
122855,-14.8104,-20.5963,-14.3438,1.9001,-1.13482,1.38915
122917,-14.8009,-20.5763,-14.3196,1.89995,-1.13611,1.39381
122979,-14.791,-20.5556,-14.2627,1.89998,-1.13743,1.39878
123045,-14.7906,-20.5377,-14.1016,1.90054,-1.13855,1.40306
123107,-14.7794,-20.5044,-14.2659,1.89847,-1.13963,1.41011
123173,-14.7677,-20.4813,-14.2893,1.90004,-1.14017,1.41374
123235,-14.7577,-20.4627,-14.2988,1.89936,-1.14082,1.41954
123297,-14.7533,-20.4493,-14.1877,1.90032,-1.14122,1.42377
123363,-14.7474,-20.4277,-14.256,1.89512,-1.14245,1.43505
123425,-14.7332,-20.4064,-14.3444,1.89731,-1.1426,1.43786
123486,-14.721,-20.3929,-14.4281,1.89346,-1.1438,1.44688
123552,-14.7092,-20.3853,-14.3499,1.89464,-1.14429,1.45059
123614,-14.6945,-20.3712,-14.3138,1.89232,-1.14568,1.45787
123680,-14.6839,-20.358,-14.3198,1.8921,-1.14684,1.46291
123742,-14.6736,-20.3463,-14.248,1.88907,-1.14832,1.47103
123803,-14.6606,-20.329,-14.3999,1.8854,-1.15003,1.47953
123869,-14.6479,-20.3218,-14.2894,1.88828,-1.15118,1.4823
123931,-14.6432,-20.3137,-14.3388,1.88587,-1.15301,1.48942
123992,-14.6327,-20.3049,-14.2101,1.88779,-1.15415,1.49213
124058,-14.6116,-20.2808,-14.1057,1.88639,-1.15585,1.4991
124119,-14.5954,-20.2556,-14.1622,1.88619,-1.15715,1.50418
124185,-14.5879,-20.24,-14.0964,1.88526,-1.15835,1.51044
124247,-14.575,-20.218,-14.1405,1.88414,-1.15962,1.51687
124308,-14.5623,-20.1999,-14.1129,1.88428,-1.16041,1.52143
124374,-14.5551,-20.184,-14.1459,1.88304,-1.16118,1.52787
124436,-14.5527,-20.1746,-14.0513,1.8824,-1.16156,1.53345
124497,-14.5535,-20.1624,-14.2924,1.88041,-1.16228,1.54005
124563,-14.545,-20.1588,-14.18,1.87989,-1.16291,1.54596
124625,-14.5428,-20.1528,-14.2259,1.87832,-1.16362,1.5522
124690,-14.5443,-20.1523,-14.2303,1.87672,-1.16457,1.55917
124752,-14.5305,-20.1415,-14.2026,1.87642,-1.16542,1.56433
124814,-14.5202,-20.132,-14.1049,1.875,-1.16641,1.57039
124880,-14.5032,-20.1118,-14.1253,1.87531,-1.16753,1.57535
124941,-14.4854,-20.0938,-14.1898,1.87491,-1.1687,1.58075
125007,-14.4655,-20.0789,-14.1521,1.87465,-1.17004,1.58633
125069,-14.446,-20.0626,-14.0771,1.87372,-1.1713,1.59193
125131,-14.4238,-20.0406,-13.8884,1.8735,-1.17241,1.59686
125197,-14.4023,-20.0075,-14.0706,1.87181,-1.17398,1.60377
125259,-14.3886,-19.9934,-14.1012,1.87185,-1.17529,1.60853
125365,-14.3747,-19.9802,-14.5551,1.86698,-1.17762,1.62138
125431,-14.3721,-20.0059,-14.0126,1.86622,-1.17837,1.62716
125492,-14.3706,-19.9969,-14.0111,1.86498,-1.17917,1.6332
125558,-14.3676,-19.9865,-13.5869,1.86408,-1.17992,1.6393
125620,-14.3704,-19.9553,-13.559,1.86168,-1.18055,1.64634
125682,-14.3694,-19.9212,-14.0601,1.85999,-1.18135,1.65288
125747,-14.3678,-19.9184,-13.4012,1.85848,-1.18198,1.65963
125809,-14.3722,-19.88,-13.594,1.85538,-1.18278,1.66777
125871,-14.3794,-19.8569,-14.0499,1.85505,-1.18328,1.67322
125937,-14.3729,-19.853,-14.1052,1.85407,-1.18425,1.67938
125998,-14.3617,-19.8492,-14.0875,1.85318,-1.18546,1.68504
126064,-14.3536,-19.847,-14.0356,1.85236,-1.18669,1.69097
126126,-14.3464,-19.8421,-14.023,1.85201,-1.18795,1.69606
126188,-14.3388,-19.8363,-14.0327,1.85151,-1.18929,1.70153
126254,-14.328,-19.8293,-14.0347,1.85011,-1.19066,1.70808
126316,-14.3202,-19.8247,-13.9299,1.8502,-1.19207,1.71315
126378,-14.3086,-19.8113,-13.7224,1.84923,-1.19351,1.71897
126443,-14.3035,-19.7896,-13.4541,1.84798,-1.19482,1.72493
126505,-14.2945,-19.7507,-13.7827,1.84642,-1.19611,1.73145
126571,-14.2813,-19.7297,-13.8674,1.84548,-1.19702,1.7378
126632,-14.2687,-19.716,-13.8721,1.84283,-1.19786,1.74511
126694,-14.2513,-19.6998,-13.7533,1.84252,-1.19835,1.74996
126760,-14.2333,-19.6759,-13.9912,1.83864,-1.19908,1.75885
126821,-14.2187,-19.6705,-14.0055,1.83803,-1.19919,1.76407
126883,-14.2125,-19.6721,-13.9027,1.83607,-1.1998,1.7712
126948,-14.2022,-19.6645,-13.8663,1.83352,-1.20047,1.77904
127010,-14.1894,-19.6533,-14.1115,1.83214,-1.20121,1.78528
127076,-14.1778,-19.6591,-13.9117,1.82912,-1.20226,1.79312
127138,-14.1695,-19.654,-13.9068,1.82991,-1.20327,1.79717
127200,-14.1606,-19.6484,-13.8961,1.828,-1.20455,1.80387
127265,-14.1383,-19.6332,-13.914,1.8267,-1.20596,1.81014
127327,-14.1103,-19.6157,-13.8626,1.82808,-1.20716,1.81342
127389,-14.0917,-19.6024,-13.8718,1.82462,-1.2088,1.82176
127455,-14.0751,-19.5916,-13.8206,1.82579,-1.20984,1.82523
127516,-14.0665,-19.5837,-13.7963,1.8228,-1.21131,1.83332
127582,-14.0566,-19.5735,-13.6855,1.82355,-1.21231,1.83781
127644,-14.0433,-19.5549,-13.7401,1.82117,-1.21318,1.84504
127706,-14.0389,-19.5466,-13.7144,1.81915,-1.214,1.85209
127772,-14.0186,-19.5256,-13.7691,1.81854,-1.21441,1.85788
127833,-14,-19.5105,-13.7253,1.81382,-1.21493,1.8678
127895,-13.9859,-19.4965,-13.8059,1.81478,-1.21507,1.87141
127961,-13.9772,-19.4917,-13.8494,1.80946,-1.21592,1.88202
128023,-13.9748,-19.4941,-13.7293,1.80893,-1.21611,1.88773
128089,-13.9763,-19.4916,-13.9532,1.80569,-1.21688,1.89645
128151,-13.9766,-19.5021,-13.6634,1.80393,-1.21761,1.90326
128258,-13.9887,-19.4973,-13.7052,1.7978,-1.21958,1.91769
128323,-13.9978,-19.4984,-13.8561,1.79779,-1.22066,1.92254
128385,-14.0027,-19.506,-13.8013,1.79613,-1.2219,1.92914
128451,-14.0019,-19.506,-13.8239,1.79431,-1.22333,1.93612
128513,-14.0021,-19.508,-13.7679,1.79403,-1.22441,1.94129
128574,-14.0019,-19.5063,-13.652,1.791,-1.22583,1.9492
128640,-13.9987,-19.495,-13.6272,1.79092,-1.22685,1.95451
128702,-13.9904,-19.4796,-13.6262,1.78745,-1.22798,1.96282
128764,-13.9877,-19.4688,-13.555,1.78667,-1.22873,1.96857
128830,-13.9849,-19.4532,-13.589,1.78359,-1.2296,1.977
128892,-13.9755,-19.4366,-13.5327,1.78153,-1.23006,1.984
128957,-13.9706,-19.4199,-13.593,1.77929,-1.23041,1.99179
129019,-13.9634,-19.4064,-13.6089,1.77561,-1.23072,2.00018
129081,-13.9599,-19.3971,-13.6759,1.77321,-1.23099,2.00738
129147,-13.952,-19.3891,-13.7556,1.7692,-1.23158,2.01673
129209,-13.9392,-19.383,-13.7495,1.76701,-1.2321,2.0235
129271,-13.923,-19.3744,-13.7962,1.76441,-1.23292,2.03103
129338,-13.9151,-19.3753,-13.7669,1.76196,-1.2337,2.03882
129400,-13.9114,-19.3768,-13.7604,1.76041,-1.23459,2.04501
129478,-13.9113,-19.3811,-13.6651,1.75728,-1.23619,2.05395
129539,-13.916,-19.382,-13.6123,1.75662,-1.23729,2.0594
129601,-13.9124,-19.3739,-13.6167,1.75386,-1.23848,2.06698
129666,-13.9026,-19.3619,-13.5176,1.75279,-1.23968,2.07287
129727,-13.8997,-19.3495,-13.5832,1.75046,-1.24065,2.07962
129789,-13.899,-19.3431,-13.5605,1.74829,-1.24156,2.08661
129855,-13.892,-19.3307,-13.5408,1.74722,-1.24243,2.09317
129916,-13.8859,-19.3188,-13.5603,1.74426,-1.24305,2.10117
129982,-13.8776,-19.3066,-13.5744,1.74299,-1.24363,2.10779
130043,-13.8734,-19.2991,-13.4199,1.73932,-1.24406,2.11633
130105,-13.8632,-19.2782,-13.592,1.73731,-1.24452,2.12329
130171,-13.8573,-19.2716,-13.516,1.7345,-1.24478,2.13094
130233,-13.8569,-19.2646,-13.5199,1.73084,-1.24498,2.13988
130295,-13.8581,-19.2593,-13.6978,1.72905,-1.24517,2.14691
130360,-13.8587,-19.2647,-14.0197,1.7252,-1.24553,2.15585
130422,-13.8473,-19.2809,-14.3851,1.72274,-1.24613,2.16306
130488,-13.8398,-19.3242,-13.7357,1.72037,-1.247,2.17053
130549,-13.8397,-19.3284,-13.9574,1.71746,-1.248,2.17817
130611,-13.8349,-19.3427,-13.8474,1.71556,-1.24914,2.18453
130677,-13.8334,-19.3526,-13.6321,1.71299,-1.25041,2.19228
130739,-13.8263,-19.3445,-14.4336,1.71159,-1.25149,2.19896
130801,-13.826,-19.3901,-13.5457,1.70932,-1.25255,2.20612
130866,-13.8221,-19.377,-13.4289,1.70671,-1.25361,2.21308
130928,-13.813,-19.3541,-13.3965,1.70473,-1.25421,2.22043
130994,-13.8111,-19.3341,-13.437,1.70137,-1.25481,2.22906
131056,-13.807,-19.3171,-13.3897,1.69922,-1.25531,2.23616
131164,-13.7889,-19.2767,-13.4524,1.69456,-1.25586,2.24924
131230,-13.7759,-19.2563,-13.4992,1.69073,-1.25597,2.25817
131292,-13.7627,-19.24,-13.6161,1.68698,-1.25604,2.26678
131357,-13.751,-19.2327,-13.4865,1.68466,-1.25616,2.2739
131419,-13.7408,-19.2187,-13.3678,1.68148,-1.25669,2.2822
131481,-13.7383,-19.2035,-13.5514,1.679,-1.25715,2.28937
131547,-13.744,-19.2057,-13.5669,1.6759,-1.25789,2.29773
131608,-13.7494,-19.2086,-13.444,1.67341,-1.25846,2.30491
131670,-13.7485,-19.1996,-13.4757,1.67115,-1.25933,2.3122
131736,-13.747,-19.1921,-13.4876,1.66824,-1.2602,2.32
131798,-13.7453,-19.1859,-13.596,1.6659,-1.26109,2.32694
131864,-13.749,-19.1903,-13.6804,1.66192,-1.26199,2.33592
131925,-13.7456,-19.1946,-13.5138,1.65984,-1.26282,2.34288
131987,-13.7445,-19.1903,-13.438,1.65751,-1.2636,2.35005
132053,-13.7417,-19.1798,-13.3356,1.65491,-1.26428,2.35762
132115,-13.7374,-19.1631,-13.3331,1.65208,-1.26467,2.36515
132177,-13.7339,-19.1475,-13.3741,1.64816,-1.26507,2.37382
132243,-13.7284,-19.133,-13.3993,1.64527,-1.2652,2.38157
132305,-13.7271,-19.1243,-13.3565,1.64157,-1.26536,2.39024
132370,-13.7301,-19.1158,-13.3674,1.63843,-1.26542,2.39802
132432,-13.7328,-19.1086,-13.438,1.6346,-1.26552,2.40685
132494,-13.7335,-19.1046,-13.4159,1.6311,-1.26569,2.41496
132559,-13.727,-19.0941,-13.4928,1.62828,-1.26597,2.42312
132621,-13.714,-19.0847,-13.4953,1.6256,-1.26619,2.43068
132682,-13.7029,-19.077,-13.4776,1.62263,-1.26669,2.43837
132748,-13.6851,-19.0639,-13.3973,1.61884,-1.26753,2.44727
132810,-13.6727,-19.0503,-13.5831,1.61692,-1.26821,2.45409
132875,-13.6617,-19.0499,-13.4044,1.61402,-1.26912,2.46231
132937,-13.6484,-19.0366,-13.4342,1.6116,-1.26987,2.46935
132999,-13.6424,-19.0309,-13.3904,1.60895,-1.27055,2.47721
133064,-13.6397,-19.0248,-13.3003,1.60589,-1.27124,2.48533
133126,-13.6473,-19.0208,-13.3505,1.60246,-1.27179,2.49362
133188,-13.6473,-19.0148,-13.2841,1.59907,-1.2724,2.50187
133254,-13.6468,-19.0041,-13.303,1.59588,-1.2727,2.50999
133316,-13.6446,-18.9943,-13.273,1.59163,-1.27273,2.51909
133382,-13.6491,-18.9873,-13.3241,1.58805,-1.2728,2.52788
133444,-13.6532,-18.9839,-13.4158,1.58403,-1.27282,2.53658
133505,-13.6587,-18.9873,-13.3685,1.58064,-1.27281,2.5447
133571,-13.6498,-18.9774,-13.4319,1.57645,-1.27271,2.55383
133633,-13.6396,-18.9711,-13.4044,1.5726,-1.27285,2.56228
133695,-13.6283,-18.9627,-13.5094,1.56866,-1.27298,2.57117
133761,-13.6197,-18.9633,-13.503,1.56495,-1.27327,2.58024
133823,-13.6107,-18.9627,-13.4641,1.56144,-1.27363,2.58846
133889,-13.5986,-18.9579,-13.3937,1.5584,-1.27435,2.59668
133951,-13.5849,-18.9478,-13.4761,1.55547,-1.27504,2.60458
134059,-13.5616,-18.94,-13.3922,1.5496,-1.27628,2.6184
134125,-13.556,-18.9361,-13.3757,1.54584,-1.27681,2.62768
134187,-13.5432,-18.9264,-13.3122,1.54325,-1.27728,2.63537
134248,-13.5314,-18.914,-13.2889,1.54023,-1.27764,2.64322
134314,-13.5152,-18.8973,-13.2368,1.53728,-1.27789,2.65154
134376,-13.5096,-18.8858,-13.2021,1.53451,-1.27802,2.65936
134442,-13.5045,-18.8724,-13.3033,1.53096,-1.27795,2.66802
134504,-13.5014,-18.8678,-13.3077,1.52737,-1.27788,2.67648
134566,-13.5035,-18.8672,-13.2694,1.52311,-1.27773,2.68544
134631,-13.4996,-18.8599,-13.3178,1.51861,-1.27757,2.69476
134693,-13.5039,-18.8618,-13.4314,1.51463,-1.27732,2.70369
134755,-13.5089,-18.871,-13.4028,1.51059,-1.27732,2.71253
134815,-13.5202,-18.8823,-13.3785,1.50729,-1.27722,2.72013
134877,-13.529,-18.89,-13.4102,1.50354,-1.2775,2.72847
134943,-13.5368,-18.8988,-13.3974,1.4993,-1.2778,2.73777
135004,-13.5416,-18.9041,-13.3742,1.49602,-1.27827,2.74617
135066,-13.5369,-18.9013,-13.2861,1.49181,-1.27883,2.75541
135132,-13.5292,-18.8909,-13.3986,1.48776,-1.27947,2.76425
135194,-13.5174,-18.8852,-13.1648,1.48634,-1.27984,2.77006
135259,-13.503,-18.8632,-13.2938,1.47815,-1.28005,2.78369
135321,-13.4912,-18.8524,-13.2781,1.47781,-1.28047,2.7888
135382,-13.4736,-18.8371,-13.3681,1.47249,-1.28063,2.79913
135448,-13.4608,-18.8313,-13.2798,1.46902,-1.28092,2.80744
135509,-13.4447,-18.818,-13.1257,1.46671,-1.28115,2.81429
135571,-13.4233,-18.7922,-13.4061,1.45862,-1.28082,2.82723
135637,-13.408,-18.7893,-13.2706,1.45892,-1.28083,2.83186
135698,-13.396,-18.7801,-13.3361,1.45219,-1.28047,2.8432
135764,-13.3812,-18.7735,-13.2009,1.44982,-1.28018,2.85066
135825,-13.3673,-18.7595,-13.5275,1.44514,-1.27989,2.85984
135887,-13.3653,-18.774,-13.3705,1.43911,-1.27996,2.87067
135953,-13.3657,-18.7804,-13.2849,1.43798,-1.27992,2.87645
136014,-13.362,-18.7782,-13.3678,1.4311,-1.27983,2.88789
136076,-13.3621,-18.7837,-13.3441,1.43029,-1.28022,2.89329
136142,-13.3636,-18.7887,-13.2563,1.42442,-1.2804,2.90432
136204,-13.3689,-18.7906,-13.3154,1.42223,-1.28059,2.91184
136269,-13.37,-18.7932,-13.2331,1.41846,-1.28086,2.92056
136331,-13.3736,-18.7923,-13.257,1.41386,-1.28129,2.93013
136393,-13.3772,-18.7929,-13.5233,1.41226,-1.28157,2.93673
136459,-13.3838,-18.8126,-12.9625,1.40626,-1.28163,2.94865
136521,-13.3864,-18.7938,-13.1563,1.4045,-1.28162,2.95497
136582,-13.3826,-18.7832,-13.1947,1.39966,-1.28141,2.96478
136648,-13.3818,-18.7771,-12.9164,1.3972,-1.28123,2.972
136710,-13.3862,-18.7582,-13.2685,1.39357,-1.28099,2.98053
136776,-13.3923,-18.7627,-13.2569,1.38693,-1.2807,2.99217
136838,-13.3919,-18.7618,-13.4801,1.3862,-1.28035,2.99767
136948,-13.3926,-18.7848,-13.402,1.38321,-1.27986,3.00915
137014,-13.3958,-18.7948,-13.4055,1.37854,-1.27952,3.01915
137075,-13.4052,-18.8081,-13.2554,1.37472,-1.27917,3.02757
137137,-13.4185,-18.8147,-13.372,1.3722,-1.27897,3.03481
137203,-13.4332,-18.8292,-13.3879,1.36551,-1.27866,3.04639
137265,-13.4444,-18.8414,-13.4226,1.36425,-1.27871,3.05228
137331,-13.4566,-18.8563,-13.2938,1.35897,-1.27881,3.06315
137392,-13.4691,-18.8626,-13.2285,1.35675,-1.279,3.06991
137454,-13.4748,-18.8599,-13.3359,1.35407,-1.27915,3.07737
137520,-13.4816,-18.8646,-13.2392,1.34837,-1.27918,3.08789
137582,-13.4877,-18.8627,-13.1469,1.34546,-1.27932,3.0955
137643,-13.4918,-18.8542,-13.239,1.34049,-1.27905,3.10532
137709,-13.4985,-18.8528,-13.1462,1.3377,-1.27879,3.11345
137771,-13.5009,-18.8433,-13.1911,1.33252,-1.27822,3.12366
137837,-13.5024,-18.8357,-13.1865,1.32992,-1.2778,3.13129
137899,-13.4973,-18.8242,-13.1531,1.32543,-1.2773,3.14039
137961,-13.485,-18.8061,-13.1317,1.32158,-1.27673,-3.1342
138026,-13.4834,-18.7944,-13.2768,1.31716,-1.27595,-3.12444
138088,-13.4938,-18.8008,-13.3322,1.31335,-1.27547,-3.11586
138150,-13.4997,-18.8072,-13.3571,1.30973,-1.27496,-3.10705
138216,-13.5031,-18.8133,-13.2814,1.30499,-1.27445,-3.09708
138277,-13.5011,-18.8106,-13.3657,1.30246,-1.27419,-3.08978
138343,-13.5061,-18.8183,-13.2686,1.29721,-1.27396,-3.07941
138405,-13.5091,-18.8181,-13.3357,1.29453,-1.27382,-3.07196
138466,-13.5099,-18.8204,-13.2295,1.29006,-1.2736,-3.06257
138532,-13.507,-18.8133,-13.2408,1.28612,-1.27334,-3.05323
138593,-13.504,-18.8075,-13.195,1.28341,-1.27335,-3.04567
138655,-13.5001,-18.7985,-13.2378,1.28011,-1.27321,-3.03719
138721,-13.4972,-18.793,-13.1471,1.27636,-1.27291,-3.02831
138783,-13.4923,-18.781,-13.1695,1.27292,-1.27256,-3.02004
138848,-13.483,-18.7675,-13.1869,1.26908,-1.27194,-3.01072
138910,-13.4788,-18.7595,-13.184,1.26584,-1.27144,-3.00283
138972,-13.4798,-18.7553,-13.2125,1.2622,-1.27071,-2.99399
139038,-13.479,-18.7515,-13.3971,1.25938,-1.2701,-2.98605
139100,-13.4771,-18.7586,-13.295,1.2565,-1.26951,-2.9783
139166,-13.4733,-18.7579,-13.2634,1.25223,-1.26869,-2.9692
139228,-13.472,-18.757,-13.3477,1.24764,-1.26811,-2.95967
139289,-13.4594,-18.7533,-13.2782,1.2442,-1.26756,-2.95147
139355,-13.4454,-18.7448,-13.3494,1.24102,-1.26727,-2.9434
139417,-13.4353,-18.7436,-13.2859,1.23778,-1.26696,-2.93531
139479,-13.4307,-18.7423,-13.2696,1.23505,-1.26664,-2.92805
139545,-13.4254,-18.7398,-13.3327,1.23128,-1.26631,-2.91882
