Time (ms),Altitude,Vertical Velocity,Vertical Acceleration,Yaw,Pitch,Roll
75216,-224.828,0,-19.2,1.68602,-0.187917,-3.07574
75276,-205.393,12.3296,-19.2514,1.68775,-0.186721,-3.07459
75336,-186.908,23.4855,-19.2267,1.68974,-0.185422,-3.07323
75399,-168.451,34.0436,-19.2075,1.6918,-0.184039,-3.07184
75459,-151.849,42.9964,-19.3009,1.6931,-0.182934,-3.06922
75518,-136.405,50.821,-19.2676,1.69452,-0.181751,-3.06691
75582,-120.554,58.3266,-19.1806,1.69639,-0.180297,-3.06553
75641,-106.866,64.3156,-19.2048,1.69798,-0.179012,-3.06477
75705,-92.8926,69.9296,-19.2914,1.69948,-0.17776,-3.06339
75764,-80.8889,74.2713,-19.239,1.7008,-0.177048,-3.06207
75824,-69.4563,77.9715,-19.2315,1.70249,-0.176063,-3.06192
75887,-58.2565,81.1354,-19.2385,1.70435,-0.175132,-3.06214
75947,-48.3741,83.4771,-19.3186,1.70627,-0.174366,-3.06239
76006,-39.3655,85.189,-19.1997,1.70799,-0.173534,-3.06207
76070,-30.3174,86.4739,-19.2143,1.70994,-0.172594,-3.06158
76130,-22.531,87.1439,-19.2348,1.71197,-0.171664,-3.06155
76194,-14.9038,87.3576,-19.1158,1.71367,-0.170495,-3.06149
76254,-8.40564,87.1046,-19.2078,1.71537,-0.169579,-3.06086
76313,-2.57664,86.4723,-19.2688,1.71722,-0.168404,-3.05947
76377,3.16866,85.4124,-19.0545,1.71898,-0.167217,-3.0578
76437,8.00223,84.0912,-19.1461,1.72061,-0.166091,-3.05606
76497,12.3386,82.4753,-19.2196,1.72207,-0.164961,-3.05409
76561,16.4513,80.4665,-19.2299,1.72367,-0.163805,-3.05193
76621,19.829,78.3324,-19.1719,1.72518,-0.162605,-3.05044
76685,22.9737,75.8405,-19.1886,1.72691,-0.161303,-3.04914
76745,25.5074,73.3167,-19.2365,1.7284,-0.160131,-3.04793
76805,27.67,70.6379,-19.302,1.73013,-0.159055,-3.04651
76869,29.604,67.6412,-18.958,1.73194,-0.158,-3.0452
76929,31.0716,64.7334,-19.1989,1.7339,-0.157009,-3.04445
77017,32.7312,60.3265,-19.176,1.73683,-0.155499,-3.04479
77081,33.5296,57.0088,-19.2105,1.73894,-0.154541,-3.04531
77140,34.0106,53.9019,-19.1673,1.74078,-0.153597,-3.04559
77204,34.2789,50.5025,-19.2274,1.74228,-0.152822,-3.04526
77264,34.3021,47.2908,-19.4008,1.74357,-0.151943,-3.04414
77324,34.1312,44.0679,-19.2556,1.7452,-0.150908,-3.04403
77387,33.7639,40.7068,-19.2341,1.74713,-0.149714,-3.0431
77447,33.253,37.5318,-19.1486,1.74896,-0.148639,-3.04229
77507,32.6024,34.397,-19.1823,1.7508,-0.147424,-3.04155
77571,31.762,31.0932,-19.2184,1.75286,-0.146257,-3.04019
77631,30.8576,28.0461,-19.1432,1.75458,-0.145176,-3.03867
77695,29.7777,24.8602,-19.193,1.7565,-0.143996,-3.03688
77754,28.6969,21.9863,-19.1699,1.75812,-0.14297,-3.03511
77814,27.5138,19.1274,-19.1429,1.75988,-0.141941,-3.03305
77878,26.1668,16.1515,-19.1603,1.76154,-0.141012,-3.03146
77938,24.8375,13.4343,-19.1966,1.76329,-0.139794,-3.03033
77998,23.4598,10.7944,-19.0831,1.76513,-0.138518,-3.02997
78062,21.9489,8.07764,-19.162,1.76688,-0.137343,-3.02874
78122,20.5022,5.61453,-19.0885,1.76825,-0.136526,-3.02783
78186,18.9319,3.08561,-19.1347,1.76987,-0.135178,-3.02712
78246,17.4493,0.806646,-19.2194,1.77147,-0.133943,-3.02647
78306,15.9604,-1.38707,-19.1701,1.77324,-0.132898,-3.02613
78370,14.3663,-3.62768,-19.0933,1.77481,-0.131933,-3.02455
78430,12.8807,-5.62741,-19.1474,1.77682,-0.130953,-3.02345
78490,11.4035,-7.54141,-19.1245,1.77859,-0.129837,-3.02286
78554,9.83997,-9.4857,-19.1348,1.78076,-0.12844,-3.02195
78613,8.42076,-11.187,-19.1353,1.78256,-0.127484,-3.02042
78677,6.89918,-12.9416,-19.0964,1.78447,-0.126564,-3.01869
78737,5.49951,-14.4951,-19.0772,1.786,-0.12566,-3.01722
78796,4.16036,-15.9328,-19.1237,1.78742,-0.124651,-3.016
78860,2.73364,-17.4111,-19.1279,1.78914,-0.123357,-3.01482
78920,1.43577,-18.7103,-19.1422,1.79078,-0.122281,-3.01373
78980,0.176215,-19.9297,-19.1017,1.79231,-0.121197,-3.01267
79044,-1.13219,-21.148,-19.0679,1.79419,-0.120058,-3.01155
79104,-2.31425,-22.2081,-19.1907,1.79587,-0.119019,-3.01092
79168,-3.53993,-23.2739,-19.1859,1.79808,-0.117824,-3.0108
79228,-4.64948,-24.2025,-19.0217,1.79997,-0.116642,-3.01088
79288,-5.72773,-25.0612,-19.0417,1.80178,-0.115748,-3.00998
79352,-6.83545,-25.9098,-19.1326,1.80367,-0.114882,-3.00845
79411,-7.81233,-26.6334,-19.0481,1.80552,-0.113933,-3.00785
79471,-8.76536,-27.3059,-18.9702,1.80706,-0.113002,-3.00689
79535,-9.73583,-27.9558,-19.1792,1.8085,-0.111888,-3.00539
79595,-10.597,-28.5175,-19.1085,1.8101,-0.110896,-3.00385
79659,-11.4753,-29.0587,-19.0406,1.81182,-0.109895,-3.002
79719,-12.2527,-29.5084,-19.1072,1.81346,-0.108963,-3.00064
79779,-12.998,-29.9212,-19.0661,1.81511,-0.107914,-2.9993
79843,-13.7584,-30.3161,-19.09,1.81713,-0.107066,-2.99786
79904,-14.4419,-30.649,-19.0457,1.81894,-0.106142,-2.99618
79964,-15.071,-30.9304,-19.0483,1.8208,-0.105225,-2.99478
80028,-15.7105,-31.1959,-19.0817,1.82252,-0.1042,-2.99354
80116,-16.5495,-31.5172,-18.9838,1.82509,-0.102369,-2.99275
80179,-17.0776,-31.679,-19.0288,1.82695,-0.10128,-2.99205
80239,-17.5394,-31.8006,-19.0483,1.82821,-0.1005,-2.99093
80299,-17.9667,-31.8945,-19.0321,1.82972,-0.099681,-2.98994
80363,-18.3897,-31.9666,-19.0241,1.83153,-0.0984477,-2.98924
80422,-18.7458,-32.0064,-19.0629,1.83344,-0.0972205,-2.98894
80482,-19.0782,-32.0269,-18.9987,1.83499,-0.0961715,-2.98773
80546,-19.3994,-32.0207,-19.0296,1.83661,-0.0954176,-2.98591
80605,-19.6774,-32.0044,-19.0027,1.83791,-0.0945061,-2.98422
80669,-19.9531,-31.968,-19.038,1.83978,-0.093347,-2.98297
80729,-20.1788,-31.9148,-18.9918,1.84186,-0.0923466,-2.9817
80789,-20.3805,-31.8444,-18.9959,1.84377,-0.0914025,-2.97979
80853,-20.578,-31.7605,-18.9785,1.84581,-0.0907086,-2.97747
80912,-20.7382,-31.6704,-18.9443,1.84764,-0.0900352,-2.97609
80972,-20.8811,-31.5666,-18.9625,1.84944,-0.0890325,-2.97519
81036,-21.0102,-31.4457,-18.883,1.85135,-0.0876354,-2.97467
81096,-21.1062,-31.3152,-18.9699,1.85324,-0.0865869,-2.97367
81160,-21.2039,-31.1842,-18.9696,1.85474,-0.0855888,-2.9721
81220,-21.2661,-31.0462,-18.9429,1.85638,-0.0847104,-2.97119
81280,-21.3223,-30.9083,-18.9864,1.85805,-0.0835338,-2.97094
81344,-21.3723,-30.7633,-18.9671,1.85991,-0.0820648,-2.97085
81404,-21.3992,-30.6182,-18.989,1.86189,-0.0809442,-2.97053
81464,-21.4124,-30.471,-18.9626,1.86355,-0.0799435,-2.96981
81528,-21.4179,-30.3131,-18.9363,1.8656,-0.0789313,-2.96931
81587,-21.4139,-30.166,-18.9333,1.86734,-0.0779238,-2.96875
81651,-21.4026,-30.0081,-18.9435,1.86945,-0.0770125,-2.96731
81711,-21.3895,-29.8653,-18.9043,1.87117,-0.0762219,-2.96521
81770,-21.3672,-29.722,-18.9033,1.87278,-0.0755061,-2.96297
81834,-21.3359,-29.5681,-18.9874,1.87446,-0.0745118,-2.96091
81894,-21.2993,-29.4299,-18.9765,1.87608,-0.0736811,-2.95884
81954,-21.2652,-29.2985,-18.9174,1.87773,-0.0726411,-2.95701
82018,-21.2181,-29.1534,-18.9992,1.87961,-0.0716569,-2.95508
82077,-21.1759,-29.0308,-18.9687,1.88121,-0.0708858,-2.95349
82141,-21.1277,-28.8999,-18.8814,1.88315,-0.0700528,-2.9524
82201,-21.0806,-28.7759,-19.1265,1.88501,-0.0689066,-2.95216
82261,-21.0325,-28.6709,-18.884,1.88681,-0.0677958,-2.95261
82325,-20.9724,-28.5424,-18.8404,1.88907,-0.0665365,-2.95296
82385,-20.9107,-28.4208,-18.8226,1.89083,-0.0658929,-2.9528
82444,-20.8473,-28.3033,-18.8095,1.89234,-0.0650974,-2.95205
82508,-20.7762,-28.1787,-18.8683,1.89415,-0.0642134,-2.95147
82568,-20.7038,-28.0665,-18.8869,1.89579,-0.0632892,-2.95077
82632,-20.6335,-27.9579,-18.8277,1.89782,-0.0623837,-2.94905
82692,-20.5687,-27.8577,-18.8087,1.89954,-0.0617676,-2.94709
82752,-20.4994,-27.7575,-18.8293,1.90111,-0.0611787,-2.94499
82816,-20.4247,-27.6558,-18.8654,1.90286,-0.0601157,-2.94288
82876,-20.3574,-27.5687,-18.8365,1.90478,-0.059376,-2.94066
82936,-20.2992,-27.4897,-18.7982,1.90646,-0.0587587,-2.93809
83000,-20.2328,-27.4038,-18.7964,1.90844,-0.0580969,-2.93577
83060,-20.175,-27.3296,-18.7944,1.91043,-0.0574037,-2.93423
83154,-20.0868,-27.221,-18.7384,1.9131,-0.0553718,-2.93383
83214,-20.0327,-27.1536,-18.7323,1.91501,-0.054486,-2.93346
83273,-19.9774,-27.0882,-18.7541,1.91652,-0.0535307,-2.93304
83337,-19.9135,-27.019,-18.7498,1.918,-0.0526813,-2.93268
83397,-19.8576,-26.9594,-18.7594,1.91958,-0.0516222,-2.93261
83461,-19.7945,-26.8968,-18.7423,1.92148,-0.0503817,-2.93302
83521,-19.7358,-26.8399,-18.7641,1.92303,-0.0493138,-2.93306
83580,-19.6782,-26.7876,-18.7162,1.92484,-0.0485642,-2.93202
83644,-19.6229,-26.7352,-18.7332,1.92687,-0.0477769,-2.93079
83704,-19.5661,-26.6858,-18.7605,1.92858,-0.0467871,-2.92946
83764,-19.5051,-26.6371,-18.7539,1.9307,-0.0457682,-2.92832
83828,-19.4424,-26.5887,-18.7248,1.93303,-0.0447952,-2.92632
83888,-19.3862,-26.5453,-18.7277,1.9352,-0.0439562,-2.92412
83952,-19.3222,-26.4984,-18.6929,1.93752,-0.0430764,-2.92164
84012,-19.2695,-26.4593,-18.6923,1.93931,-0.0420972,-2.91984
84072,-19.2223,-26.4256,-18.6689,1.94103,-0.0411789,-2.91842
84136,-19.1814,-26.3963,-18.6797,1.94253,-0.0402883,-2.91675
84196,-19.1425,-26.3702,-18.6796,1.94428,-0.0396793,-2.91539
84256,-19.101,-26.3434,-18.7138,1.94574,-0.038582,-2.91418
84320,-19.0693,-26.3269,-18.729,1.9474,-0.0375507,-2.91376
84380,-19.0409,-26.3139,-18.6805,1.94921,-0.0365261,-2.91353
84444,-19.0096,-26.2968,-18.6992,1.95107,-0.0354266,-2.91333
84504,-18.9767,-26.2802,-18.653,1.95285,-0.0346769,-2.91299
84564,-18.9477,-26.2642,-18.6059,1.95444,-0.0337249,-2.91274
84628,-18.9174,-26.2454,-18.6083,1.95623,-0.0328781,-2.9126
84687,-18.8961,-26.2336,-18.5752,1.95804,-0.0320898,-2.91212
84747,-18.8806,-26.2243,-18.6269,1.95968,-0.0312594,-2.911
84811,-18.8615,-26.2163,-18.5989,1.96145,-0.0304684,-2.90927
84870,-18.8399,-26.2049,-18.5688,1.96308,-0.0296605,-2.90761
84934,-18.812,-26.1881,-18.5706,1.96475,-0.0285946,-2.90551
84994,-18.7857,-26.173,-18.565,1.9664,-0.0280088,-2.90322
85054,-18.7564,-26.1561,-18.5503,1.96814,-0.0272532,-2.90106
85118,-18.7289,-26.1405,-18.6252,1.97002,-0.0264584,-2.89931
85178,-18.7059,-26.1328,-18.6438,1.97196,-0.0257939,-2.89756
85238,-18.6865,-26.1292,-18.5711,1.97406,-0.0251711,-2.89622
85302,-18.6667,-26.1214,-18.5468,1.97622,-0.0243359,-2.895
85362,-18.6591,-26.1206,-18.4965,1.97809,-0.0235572,-2.89417
85426,-18.6456,-26.1129,-18.4771,1.98023,-0.0227478,-2.89348
85486,-18.6375,-26.1081,-18.5371,1.98211,-0.02181,-2.89338
85546,-18.6229,-26.1024,-18.5386,1.98382,-0.0208476,-2.8929
85623,-18.6013,-26.0936,-18.5334,1.98588,-0.0196825,-2.89249
85684,-18.5801,-26.0839,-18.4665,1.98747,-0.018748,-2.89202
85746,-18.5584,-26.0702,-18.4708,1.98941,-0.0177938,-2.89107
85812,-18.534,-26.0557,-18.5335,1.99161,-0.0171026,-2.88946
85874,-18.5122,-26.0473,-18.4607,1.99345,-0.0165699,-2.88734
85941,-18.4971,-26.0396,-18.4131,1.99531,-0.0157071,-2.88497
86003,-18.4902,-26.0349,-18.4383,1.99726,-0.014855,-2.88336
86065,-18.4967,-26.0411,-18.448,1.99953,-0.0141625,-2.88162
86132,-18.5023,-26.0472,-18.433,2.0018,-0.0135576,-2.8797
86225,-18.5126,-26.0556,-18.4253,2.00473,-0.0123353,-2.8776
86287,-18.5202,-26.061,-18.4029,2.00662,-0.0115892,-2.87673
86353,-18.5255,-26.063,-18.3576,2.00868,-0.0108255,-2.87578
86415,-18.5343,-26.0647,-18.411,2.01039,-0.0100642,-2.87461
86481,-18.5418,-26.0687,-18.3418,2.01233,-0.00926789,-2.87362
86543,-18.5578,-26.0742,-18.3548,2.01412,-0.00827823,-2.87286
86605,-18.5615,-26.0717,-18.3675,2.01604,-0.00726359,-2.87202
86671,-18.5736,-26.0757,-18.3598,2.01804,-0.00626399,-2.87073
86733,-18.5661,-26.0657,-18.3512,2.01983,-0.00561043,-2.86935
86795,-18.5683,-26.0624,-18.3202,2.02171,-0.00496673,-2.86791
86861,-18.5659,-26.0538,-17.886,2.02389,-0.00427648,-2.86643
86923,-18.5702,-26.0242,-18.3193,2.02597,-0.00339702,-2.86492
86990,-18.5767,-26.0233,-18.2791,2.0277,-0.00241547,-2.86312
87052,-18.581,-26.0188,-18.346,2.02955,-0.00169545,-2.86137
87114,-18.581,-26.0157,-18.4711,2.03158,-0.000901803,-2.85977
87180,-18.5663,-26.0104,-18.2637,2.03391,-0.000207514,-2.85766
87242,-18.5489,-25.9905,-18.3809,2.03603,0.000454158,-2.85572
87304,-18.5213,-25.9716,-18.5085,2.03783,0.00124927,-2.85435
87371,-18.4992,-25.9657,-18.2895,2.0398,0.00209291,-2.85336
87433,-18.468,-25.9398,-18.2267,2.04151,0.00291446,-2.8526
87499,-18.4423,-25.9146,-18.2784,2.04359,0.00369278,-2.85176
87561,-18.4119,-25.8908,-18.2549,2.0455,0.0046819,-2.85113
87623,-18.3854,-25.8693,-18.1928,2.0474,0.00581499,-2.85081
87689,-18.3591,-25.8447,-18.1943,2.04953,0.0065473,-2.84999
87751,-18.3271,-25.8176,-18.1982,2.05144,0.00727452,-2.84882
87813,-18.2958,-25.7925,-18.2051,2.05326,0.00830336,-2.84804
87879,-18.2676,-25.7709,-18.1809,2.05529,0.00932639,-2.84708
87941,-18.2552,-25.7598,-18.1355,2.05704,0.0100443,-2.84578
88007,-18.2398,-25.744,-18.165,2.05883,0.0106782,-2.84386
88069,-18.2253,-25.7316,-18.1554,2.0609,0.0111863,-2.84225
88131,-18.2105,-25.719,-18.117,2.06281,0.0118119,-2.84038
88197,-18.2025,-25.709,-18.1031,2.06479,0.0126642,-2.83913
88259,-18.1977,-25.7011,-18.1268,2.06668,0.0131839,-2.83775
88321,-18.1933,-25.6952,-18.1161,2.06854,0.0139422,-2.83627
88387,-18.1877,-25.6879,-18.0685,2.07078,0.0146444,-2.83524
88449,-18.1735,-25.6722,-18.1051,2.07278,0.0153669,-2.83379
88515,-18.1656,-25.6637,-18.0634,2.07492,0.0161043,-2.83278
88577,-18.1615,-25.6558,-18.0231,2.07683,0.0168838,-2.83177
88639,-18.1665,-25.6521,-18.0179,2.07863,0.0176127,-2.83047
88705,-18.1609,-25.6404,-18.0529,2.08049,0.0185299,-2.82925
88768,-18.1447,-25.6244,-18.015,2.08227,0.0192168,-2.82778
88830,-18.1279,-25.6065,-18.0953,2.08412,0.0199278,-2.82625
88896,-18.1199,-25.6003,-18.0911,2.08628,0.0206805,-2.82513
88958,-18.1077,-25.5911,-17.9518,2.08818,0.021357,-2.82406
89025,-18.0992,-25.5758,-18.018,2.09024,0.0222495,-2.82299
89087,-18.0876,-25.5637,-17.975,2.09174,0.0228175,-2.82198
89149,-18.0749,-25.5488,-17.9959,2.09356,0.0233406,-2.82119
89215,-18.0626,-25.5358,-17.9769,2.0955,0.0244245,-2.82082
89278,-18.0383,-25.5141,-17.9296,2.09718,0.0256277,-2.82093
89371,-17.9932,-25.4732,-17.9615,2.09991,0.0265111,-2.81956
89437,-17.9559,-25.4441,-17.986,2.10198,0.0270555,-2.81836
89499,-17.9221,-25.4204,-17.9193,2.10364,0.0280105,-2.81758
89565,-17.8973,-25.3996,-17.9457,2.10564,0.0288996,-2.81629
89627,-17.8824,-25.3885,-17.9174,2.10742,0.0294254,-2.81437
89689,-17.8703,-25.378,-17.8851,2.10959,0.0298925,-2.8119
89755,-17.8518,-25.3613,-17.9023,2.11188,0.0308128,-2.80949
89817,-17.84,-25.3513,-17.8923,2.11394,0.031509,-2.80745
89879,-17.8275,-25.3406,-17.8641,2.11573,0.0318991,-2.8048
89946,-17.8085,-25.3239,-17.8537,2.118,0.0318505,-2.80188
90008,-17.7911,-25.3087,-17.7765,2.12028,0.0323635,-2.79979
90074,-17.7596,-25.2792,-17.802,2.12229,0.0332318,-2.79857
90136,-17.7349,-25.2577,-17.7653,2.12426,0.0339195,-2.79757
90198,-17.7048,-25.2311,-17.8172,2.12618,0.0344176,-2.79616
90265,-17.6769,-25.2103,-17.8008,2.12818,0.0353484,-2.795
90327,-17.6582,-25.1958,-17.7256,2.13005,0.0364775,-2.79487
90389,-17.6433,-25.18,-17.8277,2.13194,0.0374616,-2.79461
90455,-17.6296,-25.172,-17.7855,2.13394,0.0381904,-2.79376
90518,-17.6262,-25.1688,-17.7485,2.13584,0.0389253,-2.79285
90584,-17.6193,-25.1609,-17.7484,2.13793,0.0400839,-2.79211
90646,-17.6249,-25.1621,-17.7198,2.13991,0.040781,-2.7914
90708,-17.6246,-25.1575,-17.9382,2.14201,0.0414105,-2.79014
90774,-17.6246,-25.1671,-17.6117,2.1444,0.0419388,-2.78831
90836,-17.6294,-25.1593,-16.1689,2.14693,0.041818,-2.78545
90899,-17.6326,-25.0616,-19.0231,2.14997,0.0420064,-2.78296
90965,-17.6288,-25.1429,-17.8737,2.15238,0.0423324,-2.78077
91027,-17.6348,-25.1529,-17.6747,2.15407,0.043038,-2.77913
91093,-17.6466,-25.1538,-18.4045,2.15588,0.0435755,-2.7774
91154,-17.6525,-25.1948,-17.8005,2.15753,0.043943,-2.77558
91216,-17.6624,-25.2008,-17.4693,2.15935,0.0444095,-2.77414
91282,-17.6626,-25.1783,-18.9721,2.16049,0.0461304,-2.77434
91344,-17.6679,-25.2529,-17.3705,2.16269,0.0469016,-2.7734
91406,-17.6718,-25.2261,-17.3762,2.16474,0.0475236,-2.77259
91472,-17.6847,-25.2053,-17.3728,2.16676,0.0479024,-2.77126
91534,-17.6966,-25.1862,-17.6743,2.16883,0.0488545,-2.77081
91600,-17.7008,-25.1804,-17.5369,2.17078,0.049717,-2.77034
91662,-17.7066,-25.1681,-17.5597,2.17259,0.050787,-2.76996
91724,-17.7069,-25.154,-17.7861,2.17505,0.0512414,-2.76873
91790,-17.7082,-25.1548,-17.4059,2.17718,0.0518186,-2.76717
91852,-17.705,-25.1295,-17.381,2.17871,0.0523573,-2.76539
91914,-17.7019,-25.1038,-17.8107,2.18074,0.0530151,-2.76362
91980,-17.6853,-25.0962,-17.2268,2.18293,0.0533041,-2.7609
92043,-17.6696,-25.0533,-17.3432,2.18492,0.0533303,-2.75804
92109,-17.6567,-25.0204,-17.6766,2.18745,0.0531947,-2.75516
92171,-17.6384,-25.0068,-17.4105,2.18944,0.0533809,-2.75256
92233,-17.6186,-24.9766,-17.0865,2.19174,0.0537841,-2.75041
92299,-17.606,-24.9308,-17.302,2.19427,0.0540622,-2.74826
92362,-17.5913,-24.9005,-17.8347,2.19656,0.054259,-2.74638
92424,-17.5802,-24.9066,-17.4191,2.199,0.0548406,-2.74518
92523,-17.5738,-24.8838,-17.195,2.20236,0.0564903,-2.74487
92585,-17.572,-24.8583,-17.4212,2.20451,0.0573146,-2.74433
92651,-17.5759,-24.8509,-17.7218,2.20691,0.0579085,-2.74296
92713,-17.5786,-24.8618,-17.5517,2.20891,0.0582041,-2.74151
92775,-17.5739,-24.8569,-17.1848,2.21084,0.0590741,-2.74051
92841,-17.5725,-24.8306,-17.2457,2.21292,0.0599272,-2.73924
92903,-17.5644,-24.8061,-17.3457,2.2148,0.0602839,-2.73743
92965,-17.5516,-24.7855,-17.1651,2.21692,0.0606018,-2.73537
93031,-17.5322,-24.7488,-17.1819,2.21888,0.0607989,-2.73327
93093,-17.5101,-24.7142,-17.5396,2.22064,0.0612638,-2.73211
93159,-17.4857,-24.7014,-17.6024,2.22305,0.062229,-2.73057
93221,-17.4741,-24.7016,-16.9007,2.22444,0.0628651,-2.72925
93284,-17.4579,-24.6555,-17.996,2.22603,0.0630853,-2.7276
93350,-17.4457,-24.6834,-16.4197,2.22809,0.0635061,-2.72592
93412,-17.4324,-24.6114,-16.7564,2.2302,0.0642156,-2.72476
93474,-17.4139,-24.5594,-17.4254,2.23205,0.0649955,-2.72386
93540,-17.396,-24.5508,-19.1278,2.23594,0.0653477,-2.72263
93602,-17.3893,-24.6535,-16.2476,2.23791,0.0658775,-2.7216
93669,-17.3763,-24.5669,-17.2683,2.24037,0.0667532,-2.72064
93731,-17.3694,-24.5559,-16.5855,2.24253,0.0677349,-2.71947
93793,-17.36,-24.5022,-17.3719,2.24383,0.0678073,-2.71755
93859,-17.3446,-24.4945,-16.9367,2.24648,0.0677627,-2.71537
93921,-17.3364,-24.4656,-17.3674,2.24896,0.0684153,-2.714
93983,-17.3295,-24.4649,-17.0001,2.25119,0.0692491,-2.71316
94049,-17.3203,-24.4393,-17.7263,2.25332,0.0697477,-2.71189
94111,-17.3138,-24.4618,-16.4364,2.25511,0.0695025,-2.70963
94177,-17.3017,-24.3979,-16.897,2.25716,0.0692377,-2.7074
94239,-17.293,-24.3704,-17.0103,2.25923,0.0696871,-2.70587
94301,-17.2737,-24.3435,-16.8254,2.26115,0.0705174,-2.7047
94367,-17.2509,-24.3027,-17.0388,2.26314,0.0709931,-2.70323
94429,-17.2305,-24.2798,-16.8869,2.26478,0.0713479,-2.70173
94491,-17.2141,-24.2513,-16.899,2.26661,0.071974,-2.7004
94557,-17.1906,-24.219,-17.0529,2.26867,0.0726255,-2.69918
94619,-17.1687,-24.1995,-16.9141,2.27057,0.0732258,-2.69804
94685,-17.151,-24.1745,-16.8552,2.27265,0.0736494,-2.69641
94747,-17.1319,-24.1468,-16.8693,2.27521,0.0737352,-2.69462
94809,-17.1104,-24.1195,-16.8971,2.27729,0.0744056,-2.69339
94876,-17.0935,-24.0974,-16.8881,2.27986,0.0748344,-2.69153
94938,-17.0745,-24.0751,-17.5561,2.28187,0.0748448,-2.68941
95000,-17.0547,-24.0937,-16.4123,2.28352,0.0745221,-2.68716
95067,-17.0352,-24.0394,-16.9582,2.28568,0.0746985,-2.68516
95129,-17.0193,-24.0259,-16.2448,2.28727,0.0752238,-2.68335
95195,-17.0058,-23.9687,-16.7881,2.2897,0.0757602,-2.68179
95257,-17.0007,-23.9554,-16.6643,2.29149,0.0760794,-2.68013
95319,-16.9934,-23.9337,-16.7121,2.29351,0.0764565,-2.67862
95386,-16.9881,-23.9161,-16.7118,2.29548,0.0769706,-2.67752
95448,-16.9803,-23.8986,-16.7539,2.29762,0.0775964,-2.67668
95510,-16.9749,-23.8861,-16.7129,2.29987,0.0784102,-2.67573
95609,-16.9615,-23.86,-16.5186,2.30341,0.0787375,-2.6732
95671,-16.9555,-23.8344,-16.5458,2.30552,0.0790662,-2.67176
95737,-16.9515,-23.8119,-16.6579,2.30762,0.0798393,-2.67058
95799,-16.9341,-23.7889,-16.62,2.30934,0.0807578,-2.66973
95861,-16.9133,-23.7623,-16.6018,2.31133,0.0811369,-2.66826
95928,-16.8888,-23.7322,-16.6494,2.31347,0.0812043,-2.66606
95990,-16.8689,-23.7105,-16.6421,2.31556,0.0812752,-2.66436
96052,-16.8531,-23.6921,-16.538,2.31766,0.0815954,-2.66303
96118,-16.836,-23.6664,-16.5388,2.31995,0.0825279,-2.66181
96181,-16.8179,-23.6417,-16.349,2.32225,0.0826383,-2.66006
96247,-16.7942,-23.6016,-16.9565,2.32479,0.0828444,-2.65803
96309,-16.7743,-23.6041,-16.5501,2.32713,0.082662,-2.65579
96371,-16.7579,-23.5842,-16.4173,2.32943,0.0826863,-2.65381
96438,-16.744,-23.5576,-16.0477,2.33151,0.082885,-2.65161
96500,-16.7278,-23.5094,-16.6975,2.33371,0.0831061,-2.64985
96562,-16.7108,-23.5022,-16.2821,2.33535,0.0834008,-2.64839
96641,-16.6935,-23.4644,-16.4995,2.33794,0.083793,-2.64661
96703,-16.6795,-23.4491,-16.5764,2.33979,0.0843677,-2.64558
96769,-16.67,-23.4422,-16.5074,2.34205,0.0849835,-2.64437
96831,-16.6596,-23.4309,-16.5496,2.34416,0.0855159,-2.64322
96894,-16.6485,-23.422,-16.5829,2.34609,0.0861048,-2.64233
96960,-16.6318,-23.4119,-16.2297,2.34831,0.0867034,-2.64115
97022,-16.6152,-23.3807,-16.3717,2.3505,0.087365,-2.63992
97084,-16.6024,-23.362,-16.2786,2.35228,0.0877991,-2.63898
97150,-16.5808,-23.3316,-16.0845,2.35444,0.0882641,-2.63793
97211,-16.5574,-23.2907,-16.25,2.35655,0.0887395,-2.63663
97277,-16.5348,-23.2609,-16.1113,2.35853,0.0891761,-2.63503
97339,-16.5061,-23.2207,-16.3806,2.36049,0.0891296,-2.6329
97401,-16.4851,-23.2038,-16.2763,2.3626,0.0891536,-2.63082
97467,-16.4551,-23.1746,-16.2321,2.36509,0.0888021,-2.62818
97529,-16.4271,-23.1458,-16.2461,2.36715,0.0883276,-2.62542
97591,-16.4041,-23.1226,-16.2117,2.36928,0.0878523,-2.62271
97657,-16.3831,-23.0992,-16.2035,2.37155,0.0877645,-2.62046
97719,-16.376,-23.0864,-16.1847,2.37382,0.0876411,-2.61829
97785,-16.368,-23.0718,-16.1517,2.37597,0.0873706,-2.6163
97847,-16.3628,-23.0583,-16.1396,2.37788,0.0876542,-2.61517
97909,-16.3578,-23.0448,-16.1227,2.37973,0.0887289,-2.61479
97976,-16.352,-23.0296,-16.0734,2.38165,0.0902753,-2.61485
98038,-16.3496,-23.0151,-16.0006,2.38338,0.0910593,-2.61465
98100,-16.3473,-22.9969,-16.2823,2.38511,0.0915734,-2.61421
98166,-16.349,-22.9994,-14.8168,2.38715,0.0924841,-2.6139
98228,-16.3457,-22.9095,-16.2886,2.38897,0.0938636,-2.61397
98294,-16.3396,-22.911,-16.0435,2.39083,0.0951574,-2.61356
98357,-16.3306,-22.8951,-16.0683,2.39276,0.095614,-2.61224
98419,-16.32,-22.8804,-16.0674,2.39527,0.0954975,-2.61019
98485,-16.2956,-22.8563,-16.0066,2.39769,0.0953949,-2.60775
98547,-16.2742,-22.8321,-16.0146,2.39994,0.0955319,-2.6056
98610,-16.2538,-22.81,-15.9022,2.40231,0.0952267,-2.60287
98711,-16.2185,-22.7637,-15.8572,2.40637,0.0934317,-2.59794
98773,-16.1941,-22.7324,-15.8584,2.40833,0.0928021,-2.59541
98839,-16.1713,-22.7027,-15.8125,2.41061,0.0930756,-2.5937
98901,-16.162,-22.6817,-15.7958,2.4124,0.093592,-2.59223
98963,-16.1456,-22.6556,-15.8429,2.41407,0.093825,-2.59054
99029,-16.1302,-22.6335,-15.9026,2.41579,0.0938645,-2.58906
99091,-16.1201,-22.6204,-15.8132,2.41761,0.0945117,-2.58813
99157,-16.1132,-22.6039,-15.8714,2.41946,0.0958037,-2.58801
99219,-16.1031,-22.5901,-15.8122,2.42131,0.096829,-2.58776
99282,-16.0925,-22.5728,-15.7815,2.42322,0.0972385,-2.58665
99348,-16.0925,-22.5612,-15.8457,2.42564,0.0974016,-2.58506
99410,-16.0884,-22.5519,-15.7616,2.42778,0.0977622,-2.58332
99472,-16.0847,-22.5381,-15.7239,2.4298,0.0981442,-2.58155
99538,-16.0785,-22.5201,-15.7611,2.43208,0.0978601,-2.57899
99600,-16.0695,-22.5039,-15.6719,2.43451,0.0970078,-2.57614
99666,-16.0617,-22.483,-15.6822,2.437,0.0962225,-2.5728
99729,-16.0558,-22.4656,-15.6845,2.43915,0.0961232,-2.57021
99791,-16.0436,-22.445,-15.6932,2.44143,0.0959391,-2.56802
99857,-16.029,-22.4234,-15.6688,2.44408,0.0954679,-2.56544
99919,-16.0161,-22.4032,-15.6164,2.44623,0.0952226,-2.56357
99982,-15.9985,-22.3771,-15.5798,2.44827,0.0951768,-2.56193
100048,-15.9784,-22.3476,-15.5715,2.45018,0.09594,-2.56091
100110,-15.9499,-22.3138,-15.5772,2.45203,0.0971344,-2.56046
100176,-15.9336,-22.2896,-15.5329,2.454,0.0979673,-2.55986
100238,-15.9188,-22.2655,-15.5599,2.45572,0.0985082,-2.55909
100300,-15.902,-22.2427,-15.5328,2.45759,0.0993379,-2.55853
100366,-15.8866,-22.2195,-15.5099,2.45957,0.100489,-2.55781
100428,-15.8682,-22.1945,-15.4951,2.46151,0.101124,-2.55697
100490,-15.8565,-22.1744,-15.5353,2.46361,0.10131,-2.5554
100556,-15.8441,-22.1565,-15.5233,2.46578,0.101134,-2.55339
100618,-15.8392,-22.1444,-15.4598,2.46802,0.100731,-2.55114
100684,-15.8434,-22.1344,-15.4135,2.47049,0.100561,-2.5488
100746,-15.8398,-22.1175,-15.4215,2.47272,0.100373,-2.54663
100808,-15.8267,-22.0952,-15.3242,2.47495,0.100027,-2.54422
100874,-15.8171,-22.0693,-15.4031,2.47744,0.0993292,-2.5415
100936,-15.8123,-22.0537,-15.3676,2.4795,0.0988998,-2.53929
100999,-15.8026,-22.033,-15.2947,2.48177,0.0990809,-2.5375
101065,-15.7944,-22.009,-15.3246,2.48381,0.0996365,-2.53613
101127,-15.7771,-21.9826,-15.2757,2.48557,0.100298,-2.53515
101193,-15.7648,-21.9568,-15.2975,2.48739,0.100974,-2.53427
101256,-15.7518,-21.9337,-15.3951,2.48941,0.101609,-2.53343
101318,-15.7388,-21.9178,-15.2644,2.49159,0.102442,-2.53282
101384,-15.7297,-21.8964,-15.2766,2.49371,0.10312,-2.53198
101446,-15.7246,-21.8803,-15.2895,2.49575,0.103412,-2.53093
101509,-15.718,-21.8645,-15.214,2.49813,0.103491,-2.52948
101575,-15.7161,-21.8473,-15.3056,2.50042,0.103222,-2.5274
101637,-15.7108,-21.835,-15.205,2.50267,0.102856,-2.52529
101739,-15.7059,-21.8086,-15.1896,2.5064,0.102075,-2.52156
101801,-15.7027,-21.7923,-15.0804,2.50852,0.101218,-2.51897
101863,-15.6947,-21.7668,-15.1258,2.51068,0.100558,-2.51656
101929,-15.6755,-21.7364,-15.2211,2.51291,0.100113,-2.51431
101991,-15.6551,-21.7132,-15.0554,2.51506,0.100209,-2.51262
102058,-15.628,-21.675,-15.039,2.51736,0.10016,-2.51058
102119,-15.6024,-21.6402,-14.9235,2.51935,0.100473,-2.50928
102181,-15.5774,-21.5998,-15.0261,2.52121,0.100713,-2.5081
102247,-15.5546,-21.5682,-15.0195,2.52311,0.101238,-2.50715
102309,-15.5277,-21.5355,-14.9956,2.52496,0.101883,-2.50655
102371,-15.5014,-21.5032,-14.8049,2.52675,0.102882,-2.50594
102437,-15.4695,-21.4554,-14.9306,2.52869,0.103879,-2.50535
102499,-15.4447,-21.4236,-14.9465,2.53076,0.104722,-2.50462
102565,-15.4221,-21.395,-14.902,2.53282,0.104759,-2.50316
102627,-15.4088,-21.372,-14.9085,2.53491,0.104452,-2.50154
102690,-15.4002,-21.3535,-14.9245,2.53737,0.104042,-2.4992
102756,-15.3882,-21.3339,-14.9072,2.53969,0.103563,-2.49667
102818,-15.3742,-21.3134,-14.83,2.54166,0.102797,-2.49396
102880,-15.3614,-21.2899,-14.8077,2.54385,0.101954,-2.49142
102946,-15.3488,-21.2653,-14.8699,2.5464,0.100884,-2.48831
103009,-15.3365,-21.2465,-14.839,2.54875,0.100148,-2.48603
103075,-15.3186,-21.2223,-14.7766,2.55112,0.0998948,-2.4841
103137,-15.2926,-21.1904,-14.7203,2.55332,0.10012,-2.48282
103199,-15.2727,-21.1606,-14.6864,2.55567,0.100575,-2.48183
103265,-15.2548,-21.1304,-14.7036,2.55768,0.101094,-2.48098
103327,-15.2402,-21.1058,-14.7068,2.55952,0.101848,-2.4804
103388,-15.2268,-21.0836,-14.6291,2.56127,0.102536,-2.47963
103454,-15.2141,-21.0568,-14.7128,2.56326,0.103454,-2.47889
103516,-15.1877,-21.0278,-14.6853,2.56514,0.10397,-2.47793
103582,-15.1561,-20.9941,-14.6779,2.56737,0.104103,-2.47656
103644,-15.1313,-20.9669,-14.6517,2.56956,0.10403,-2.47498
103706,-15.1097,-20.9414,-14.6958,2.57174,0.103793,-2.47287
103772,-15.0852,-20.9172,-14.6268,2.57399,0.103051,-2.47055
103834,-15.0626,-20.8916,-14.6089,2.57658,0.102255,-2.46811
103900,-15.0433,-20.8677,-14.5619,2.57887,0.101426,-2.46552
103963,-15.0243,-20.8426,-14.5277,2.58086,0.100962,-2.46323
104025,-15.0112,-20.8208,-14.5039,2.583,0.100701,-2.4613
104091,-14.9912,-20.7929,-14.4968,2.58491,0.100396,-2.45921
104153,-14.9746,-20.7689,-14.414,2.58692,0.100064,-2.45728
104215,-14.9613,-20.7432,-14.4557,2.58881,0.0998808,-2.45579
104281,-14.9478,-20.7202,-14.4802,2.59081,0.100553,-2.45472
104343,-14.9342,-20.7004,-14.4277,2.5927,0.101495,-2.45411
104410,-14.9137,-20.6725,-14.439,2.59477,0.102663,-2.45346
104472,-14.8921,-20.6468,-14.4488,2.59654,0.103052,-2.45285
104534,-14.8737,-20.6249,-14.394,2.59855,0.103549,-2.45193
104600,-14.8529,-20.5982,-14.3255,2.60089,0.10449,-2.45106
104663,-14.8352,-20.5712,-14.3778,2.60311,0.105187,-2.44999
104725,-14.8174,-20.5487,-14.3736,2.60497,0.10519,-2.4483
104828,-14.7857,-20.5115,-14.2926,2.60818,0.103819,-2.44439
104890,-14.7627,-20.4828,-14.2851,2.61022,0.103323,-2.44214
104956,-14.7353,-20.451,-14.2881,2.6126,0.102726,-2.43971
105018,-14.7057,-20.4201,-14.238,2.61477,0.102116,-2.43743
105080,-14.6779,-20.3886,-14.2705,2.61722,0.101098,-2.43502
105146,-14.6442,-20.3559,-14.223,2.61969,0.0999344,-2.43266
105208,-14.6156,-20.3258,-14.1953,2.62174,0.0997623,-2.43124
105270,-14.5914,-20.2983,-14.1137,2.62384,0.100262,-2.43014
105337,-14.5609,-20.2616,-14.1581,2.62627,0.100855,-2.42924
105399,-14.5327,-20.2318,-14.0948,2.62824,0.101186,-2.42818
105465,-14.4957,-20.1926,-14.1148,2.63036,0.101591,-2.42727
105527,-14.4744,-20.1679,-14.0604,2.63212,0.102341,-2.42655
105589,-14.4587,-20.1449,-14.0364,2.63401,0.103403,-2.42582
105655,-14.4512,-20.1263,-14.0502,2.63613,0.104147,-2.42479
105717,-14.4396,-20.1072,-14.0768,2.63814,0.103889,-2.42335
105780,-14.4235,-20.0874,-14.051,2.64032,0.103469,-2.42159
105846,-14.4012,-20.0622,-14.007,2.64234,0.103159,-2.41979
105908,-14.3813,-20.0375,-14.0252,2.64447,0.102817,-2.41788
105974,-14.3637,-20.0161,-13.955,2.647,0.101924,-2.41563
106037,-14.3507,-19.9948,-14.0169,2.64932,0.1007,-2.41327
106099,-14.3312,-19.974,-13.9485,2.65185,0.0996912,-2.4111
106165,-14.3171,-19.953,-13.875,2.65451,0.0991225,-2.40914
106227,-14.3094,-19.9334,-13.8298,2.65665,0.098972,-2.4073
106293,-14.2987,-19.909,-13.8325,2.65901,0.0988368,-2.40565
106355,-14.2861,-19.8853,-13.8509,2.66118,0.0986243,-2.40419
106417,-14.2651,-19.858,-13.8106,2.66311,0.0987221,-2.40326
106483,-14.246,-19.8299,-13.8526,2.66501,0.099543,-2.40238
106545,-14.2276,-19.8069,-13.7655,2.66684,0.10014,-2.40164
106607,-14.2053,-19.777,-13.7618,2.66862,0.100301,-2.40049
106673,-14.1773,-19.7432,-13.7562,2.67032,0.100645,-2.39957
106735,-14.1601,-19.719,-13.7878,2.67215,0.101523,-2.39852
106801,-14.137,-19.693,-13.7279,2.67463,0.101506,-2.39707
106863,-14.1166,-19.6669,-13.7478,2.67666,0.100883,-2.39526
106925,-14.0959,-19.6429,-13.6669,2.67887,0.0999495,-2.39325
106992,-14.076,-19.6146,-13.4879,2.68172,0.0990273,-2.391
107054,-14.0473,-19.5716,-13.6482,2.68381,0.0984028,-2.38913
107116,-14.0281,-19.5467,-13.4211,2.68611,0.097767,-2.38703
107182,-14.0065,-19.5059,-13.4912,2.68825,0.0965703,-2.38497
107245,-13.9781,-19.4677,-13.5456,2.69019,0.0956432,-2.38295
107311,-13.9623,-19.4426,-13.5182,2.69247,0.0956351,-2.38146
107373,-13.9453,-19.4169,-13.3331,2.69455,0.0962999,-2.38016
107436,-13.9265,-19.3794,-13.5209,2.6965,0.0965956,-2.37886
107515,-13.9162,-19.3583,-13.5134,2.69898,0.0963465,-2.37734
107577,-13.9015,-19.3376,-13.5192,2.70096,0.0968683,-2.37634
107639,-13.886,-19.3174,-13.5344,2.70286,0.0981918,-2.37567
107705,-13.8726,-19.3001,-13.5096,2.7049,0.0991796,-2.37481
107767,-13.862,-19.2845,-13.379,2.70682,0.0989379,-2.3735
107872,-13.8522,-19.2517,-13.4591,2.71035,0.0976565,-2.37016
107934,-13.8374,-19.2321,-13.4667,2.71238,0.0974239,-2.36833
107996,-13.8201,-19.2121,-13.3876,2.71442,0.0969939,-2.36637
108062,-13.8034,-19.1878,-13.3522,2.71647,0.0958129,-2.36401
108124,-13.7836,-19.161,-13.2935,2.71854,0.0943221,-2.36167
108186,-13.7638,-19.1318,-13.3708,2.72079,0.0931175,-2.35953
108252,-13.7451,-19.1088,-13.2485,2.723,0.0927189,-2.35764
108314,-13.7211,-19.0762,-13.2464,2.72537,0.0929688,-2.3562
108380,-13.6941,-19.0419,-13.2762,2.72753,0.0932568,-2.35482
108442,-13.663,-19.0089,-13.2195,2.72946,0.0928243,-2.35335
108504,-13.6355,-18.9765,-13.1305,2.73137,0.0928652,-2.35254
108570,-13.6048,-18.9367,-13.157,2.73301,0.09311,-2.35149
108632,-13.5749,-18.9018,-13.1546,2.73489,0.0942163,-2.35091
108699,-13.5448,-18.8672,-13.1911,2.73696,0.0948619,-2.34998
108761,-13.5152,-18.8376,-13.1761,2.73897,0.0945544,-2.34883
108823,-13.4932,-18.8137,-13.1349,2.74108,0.0939805,-2.34737
108889,-13.4699,-18.7867,-13.128,2.74311,0.0942071,-2.34615
108951,-13.4454,-18.7603,-13.1124,2.74536,0.0944817,-2.34488
109014,-13.4125,-18.7281,-13.083,2.74753,0.0944125,-2.34329
109080,-13.3846,-18.6985,-13.0639,2.74976,0.0931434,-2.34115
109142,-13.3605,-18.6723,-13.0259,2.75184,0.0924999,-2.33968
109208,-13.3361,-18.644,-13.0101,2.75406,0.0923916,-2.33791
109270,-13.3151,-18.6189,-12.9909,2.75586,0.09238,-2.33642
109332,-13.2895,-18.5906,-12.9222,2.75765,0.091753,-2.33471
109398,-13.2732,-18.5649,-12.9242,2.75963,0.0908777,-2.33278
109460,-13.258,-18.5421,-12.9396,2.76163,0.0904387,-2.33107
109522,-13.239,-18.5186,-12.9155,2.7635,0.0906414,-2.32958
109588,-13.2097,-18.4867,-12.9123,2.7658,0.0905465,-2.32804
109650,-13.1874,-18.4616,-12.9175,2.76804,0.0899908,-2.32651
109716,-13.1621,-18.4353,-12.8176,2.77006,0.0893647,-2.32484
109778,-13.137,-18.4047,-12.854,2.77218,0.0894743,-2.32348
109840,-13.1181,-18.3819,-12.8119,2.77418,0.0899789,-2.32217
109906,-13.1006,-18.3578,-12.872,2.77618,0.089656,-2.32064
109968,-13.0799,-18.3369,-12.7772,2.77845,0.0887405,-2.319
110030,-13.0529,-18.3067,-12.7351,2.78074,0.0881061,-2.31725
110096,-13.0227,-18.2723,-12.7734,2.7831,0.0879285,-2.31549
110158,-12.9909,-18.2414,-12.6955,2.78502,0.0879015,-2.31421
110225,-12.9654,-18.2105,-12.6779,2.78711,0.0872883,-2.31252
110287,-12.9493,-18.1873,-12.667,2.78916,0.0864826,-2.31071
110349,-12.9293,-18.1617,-12.6494,2.79133,0.086073,-2.3091
110415,-12.9125,-18.1377,-12.703,2.79339,0.0857367,-2.30728
110477,-12.8913,-18.1156,-12.6543,2.79522,0.0858007,-2.30615
110539,-12.8797,-18.0981,-12.6075,2.79711,0.0851337,-2.30466
110606,-12.8737,-18.0816,-12.6186,2.79931,0.0843847,-2.30313
110668,-12.8668,-18.0667,-12.5369,2.80135,0.0839689,-2.30172
110734,-12.8603,-18.0468,-12.5945,2.80358,0.0839032,-2.30046
110796,-12.8598,-18.0364,-12.5048,2.8055,0.084102,-2.29925
110897,-12.852,-18.0068,-12.5292,2.80933,0.0831538,-2.29689
110963,-12.848,-17.9909,-12.4877,2.81147,0.0826968,-2.29533
111025,-12.8397,-17.9709,-12.4719,2.81327,0.0827269,-2.29391
111087,-12.8276,-17.9483,-12.4316,2.8153,0.0828855,-2.29254
111154,-12.8135,-17.9216,-12.3872,2.81739,0.0822139,-2.2907
111216,-12.7994,-17.8945,-12.4069,2.81949,0.0809697,-2.28871
111282,-12.7799,-17.8651,-12.5005,2.82176,0.0799581,-2.28683
111344,-12.7652,-17.8469,-12.3756,2.82396,0.0795541,-2.28548
111406,-12.7505,-17.8219,-12.3786,2.82597,0.079309,-2.28393
111472,-12.7363,-17.7978,-12.3031,2.82816,0.0786219,-2.28214
111534,-12.7182,-17.7681,-12.2922,2.83004,0.0777523,-2.28055
111596,-12.6996,-17.7388,-12.2749,2.83212,0.0774464,-2.27914
111663,-12.6881,-17.7133,-12.2886,2.83418,0.077626,-2.27782
111725,-12.6822,-17.6948,-12.2543,2.83606,0.0776006,-2.27654
111791,-12.6758,-17.6738,-12.2228,2.8379,0.0770686,-2.27498
111853,-12.6592,-17.6457,-12.1972,2.83995,0.0766833,-2.27379
111915,-12.645,-17.6188,-12.2162,2.84215,0.0767504,-2.27242
111982,-12.6252,-17.5893,-12.1078,2.84438,0.076695,-2.27095
112044,-12.6044,-17.5549,-12.1833,2.84613,0.0763704,-2.26944
112111,-12.5808,-17.5235,-12.1184,2.84795,0.0755481,-2.26765
112173,-12.5484,-17.4846,-12.2197,2.85017,0.0745996,-2.26606
112235,-12.515,-17.4528,-12.143,2.85245,0.0740526,-2.26445
112301,-12.492,-17.4241,-12.0772,2.85506,0.0738099,-2.26289
112363,-12.4756,-17.398,-11.9977,2.85682,0.073029,-2.26126
112425,-12.4544,-17.3648,-11.9979,2.85909,0.0718802,-2.25948
112491,-12.4369,-17.3346,-12.03,2.86096,0.0708987,-2.25771
112553,-12.4126,-17.3041,-12.0244,2.86342,0.0708349,-2.25615
112619,-12.387,-17.2727,-11.9625,2.86575,0.0710388,-2.25473
112681,-12.3655,-17.2426,-11.9914,2.86759,0.0706202,-2.25308
112743,-12.3455,-17.2165,-11.9407,2.86952,0.0698512,-2.25148
112809,-12.3215,-17.1849,-11.899,2.87115,0.0694164,-2.25011
112871,-12.3046,-17.1579,-11.9087,2.87323,0.0695993,-2.24884
112934,-12.2775,-17.1253,-11.9473,2.87536,0.069884,-2.24772
113000,-12.2548,-17.0992,-11.8954,2.87779,0.069426,-2.24621
113062,-12.2339,-17.0729,-11.8636,2.87964,0.068855,-2.24475
113127,-12.2135,-17.0455,-11.7916,2.88127,0.0681331,-2.24327
113190,-12.1989,-17.0193,-11.7551,2.88356,0.0679955,-2.24186
113252,-12.191,-16.9969,-11.7791,2.88569,0.067659,-2.24058
113318,-12.1761,-16.9712,-11.7763,2.88815,0.0667785,-2.23893
113380,-12.1567,-16.9441,-11.8067,2.89001,0.0655929,-2.23742
113442,-12.1422,-16.9235,-11.7303,2.89216,0.064933,-2.23574
113508,-12.125,-16.8963,-11.7294,2.89428,0.0645151,-2.23435
113570,-12.1086,-16.8718,-11.6945,2.89683,0.0640865,-2.23295
113636,-12.0875,-16.842,-11.625,2.89947,0.0633975,-2.23145
113699,-12.0601,-16.8055,-11.6299,2.9014,0.0624874,-2.23
113761,-12.0357,-16.7733,-11.5747,2.90348,0.0619063,-2.22859
113827,-12.0093,-16.7366,-11.5834,2.90517,0.0619895,-2.22734
113930,-11.9709,-16.6855,-11.511,2.90891,0.0610244,-2.22535
113992,-11.9505,-16.6539,-11.5502,2.91068,0.0602493,-2.22404
114058,-11.925,-16.6217,-11.5155,2.91225,0.0596809,-2.22242
114120,-11.9071,-16.5949,-11.5082,2.91454,0.0592457,-2.22086
114186,-11.8983,-16.5742,-11.5129,2.91642,0.0586531,-2.21949
114248,-11.8889,-16.5552,-11.538,2.91868,0.0582518,-2.21784
114310,-11.8754,-16.5357,-11.4881,2.92048,0.0578869,-2.21636
114376,-11.8592,-16.5112,-11.4548,2.92269,0.0570701,-2.21469
114438,-11.8428,-16.4866,-11.4701,2.92466,0.0561463,-2.21312
114500,-11.8242,-16.4623,-11.4364,2.92683,0.0554082,-2.2118
114566,-11.8063,-16.4368,-11.328,2.92945,0.0554385,-2.21047
114628,-11.787,-16.4055,-11.337,2.93132,0.0553798,-2.20917
114694,-11.7683,-16.3756,-11.3451,2.93348,0.0547254,-2.20758
114756,-11.7555,-16.3526,-11.2286,2.9357,0.0540634,-2.20612
114819,-11.74,-16.3212,-11.2729,2.93764,0.0535811,-2.20469
114885,-11.7178,-16.2886,-11.2665,2.93939,0.0532574,-2.20335
114947,-11.6948,-16.2574,-11.284,2.94129,0.0526953,-2.20185
115009,-11.6719,-16.2287,-11.3153,2.94292,0.0516238,-2.20023
115076,-11.6474,-16.2013,-11.2696,2.94489,0.0505797,-2.19855
115138,-11.6204,-16.1714,-11.2633,2.94658,0.0501213,-2.19698
115204,-11.5869,-16.1372,-11.2255,2.94874,0.0495917,-2.19542
115266,-11.566,-16.1115,-11.1802,2.95088,0.0488502,-2.19394
115328,-11.5493,-16.087,-11.1755,2.95317,0.0481042,-2.19246
115394,-11.5369,-16.0655,-11.1003,2.95531,0.0479764,-2.19108
115456,-11.5278,-16.0435,-11.0532,2.95745,0.0477839,-2.18965
115522,-11.5126,-16.0142,-10.9963,2.95969,0.0467403,-2.18792
115584,-11.4991,-15.985,-11.0003,2.9616,0.0457497,-2.18655
115646,-11.48,-15.9534,-11.0791,2.96333,0.0450865,-2.18506
115712,-11.4616,-15.9277,-11.0757,2.96536,0.0449492,-2.18377
115774,-11.4455,-15.9052,-11.1039,2.967,0.0446215,-2.18242
115836,-11.4294,-15.8854,-10.981,2.96926,0.0436562,-2.18095
115902,-11.4146,-15.859,-11.0558,2.97143,0.0423649,-2.17936
115964,-11.3995,-15.8389,-10.9644,2.97346,0.0419475,-2.17797
116030,-11.3855,-15.814,-11.0176,2.97569,0.0423923,-2.17684
116092,-11.3732,-15.7955,-10.8859,2.97761,0.0423666,-2.17567
116155,-11.3654,-15.7727,-10.8786,2.97977,0.041192,-2.17427
116221,-11.3553,-15.748,-10.8635,2.98198,0.0397816,-2.17282
116283,-11.3423,-15.7225,-10.7478,2.98376,0.0398664,-2.17159
116345,-11.3286,-15.6907,-10.7933,2.98561,0.0398556,-2.17015
116411,-11.3047,-15.6546,-10.8705,2.98787,0.0388157,-2.16863
116473,-11.2807,-15.626,-10.8768,2.98956,0.036619,-2.16697
116539,-11.2628,-15.6025,-10.8228,2.99159,0.0343399,-2.16519
116602,-11.2451,-15.5773,-10.8363,2.99356,0.0337255,-2.16376
116664,-11.2329,-15.558,-10.7775,2.99575,0.0343917,-2.16222
116730,-11.217,-15.5326,-10.7834,2.99797,0.0341119,-2.16085
116792,-11.1975,-15.507,-10.6664,3.00008,0.0325784,-2.15949
116855,-11.1758,-15.4736,-10.6217,3.00245,0.031084,-2.15817
116961,-11.1516,-15.4245,-10.6087,3.00579,0.0329038,-2.15647
117024,-11.1439,-15.4007,-10.4342,3.00761,0.0354962,-2.1554
117090,-11.1372,-15.3667,-10.5313,3.00968,0.0340784,-2.15405
117152,-11.1309,-15.3421,-10.6811,3.01144,0.0315777,-2.15253
117214,-11.1243,-15.3273,-10.7234,3.01317,0.0312355,-2.15112
117280,-11.1106,-15.3104,-10.5578,3.01546,0.0319074,-2.14951
117342,-11.1077,-15.2922,-10.4577,3.01711,0.0316819,-2.14812
117408,-11.1013,-15.2648,-10.714,3.01919,0.0295739,-2.1463
117470,-11.092,-15.2536,-10.5485,3.02112,0.0274359,-2.14467
117533,-11.0809,-15.2312,-10.4483,3.02325,0.0273108,-2.14339
117599,-11.0602,-15.1961,-10.4965,3.02547,0.0276179,-2.14191
117661,-11.0362,-15.1645,-10.3902,3.02745,0.0268053,-2.14035
117723,-11.014,-15.1289,-10.3858,3.02932,0.0249304,-2.13884
117789,-10.9926,-15.094,-10.3503,3.03179,0.0240629,-2.13715
117852,-10.9638,-15.0542,-10.3508,3.03368,0.025008,-2.13575
117918,-10.9364,-15.0163,-10.3803,3.0357,0.0256743,-2.13424
117980,-10.9101,-14.9836,-10.3597,3.03753,0.0244001,-2.13279
118043,-10.8845,-14.9515,-10.3232,3.03953,0.0227144,-2.13151
118109,-10.8607,-14.9189,-10.3262,3.04169,0.0227502,-2.13024
118172,-10.8355,-14.8878,-10.2842,3.04397,0.0232228,-2.12886
118234,-10.8131,-14.8575,-10.2934,3.04584,0.0230394,-2.12734
118300,-10.7949,-14.8312,-10.3164,3.04802,0.0208511,-2.12588
118362,-10.7803,-14.8108,-10.2166,3.0501,0.0190331,-2.12434
118440,-10.7635,-14.7798,-10.2266,3.05264,0.0189949,-2.12277
118502,-10.7524,-14.7585,-10.2143,3.05477,0.019246,-2.1214
118564,-10.7395,-14.7362,-10.1049,3.05686,0.0180644,-2.12002
118630,-10.7339,-14.7119,-10.056,3.05893,0.0157516,-2.11861
118692,-10.7164,-14.6788,-10.0352,3.06094,0.0169031,-2.11769
118754,-10.7007,-14.6471,-10.2095,3.06285,0.0173801,-2.11639
118820,-10.683,-14.6253,-10.0262,3.06517,0.0174334,-2.11494
118882,-10.672,-14.5985,-10.0323,3.06691,0.0153172,-2.11332
118948,-10.6621,-14.573,-10.0418,3.06902,0.013416,-2.11155
119010,-10.6478,-14.5471,-10.1124,3.07091,0.0126664,-2.11013
119072,-10.6322,-14.5258,-10.0246,3.0729,0.0125662,-2.10881
119138,-10.6149,-14.4979,-10.0098,3.07529,0.0122341,-2.10756
119200,-10.6036,-14.4754,-9.94092,3.07751,0.0112961,-2.10651
119262,-10.5881,-14.4468,-9.96141,3.07967,0.0104896,-2.10531
119328,-10.5701,-14.418,-9.86432,3.08203,0.0102074,-2.10397
119390,-10.5497,-14.3838,-9.85519,3.08386,0.00990364,-2.10269
119457,-10.5289,-14.3488,-9.82263,3.08556,0.00885033,-2.10139
119519,-10.508,-14.3147,-9.81861,3.08723,0.00737651,-2.09974
119581,-10.4863,-14.2813,-9.81888,3.08921,0.00604181,-2.09846
119647,-10.4652,-14.2487,-9.78244,3.09113,0.00557983,-2.09703
119709,-10.4463,-14.2178,-9.8522,3.09309,0.00536348,-2.09589
119776,-10.4225,-14.1882,-9.82731,3.09495,0.00431468,-2.09453
119838,-10.404,-14.1629,-9.83097,3.09689,0.00318072,-2.09327
119942,-10.3658,-14.1185,-9.71128,3.10069,0.0026644,-2.09122
120009,-10.3407,-14.0833,-9.76098,3.10283,0.00269743,-2.09006
120071,-10.3191,-14.0564,-9.63598,3.10476,0.00226244,-2.08876
120133,-10.3034,-14.0271,-9.65792,3.1067,0.00118896,-2.08756
120199,-10.2898,-14.0009,-9.63998,3.10884,-8.52002e-05,-2.08618
120261,-10.2822,-13.9798,-9.58493,3.11065,-0.0003644,-2.08482
120327,-10.2725,-13.9538,-9.58159,3.11227,-0.000419414,-2.08336
120389,-10.2623,-13.9294,-9.57457,3.11387,-0.00179142,-2.08188
120451,-10.2401,-13.8974,-9.63612,3.11567,-0.00365689,-2.08044
120517,-10.2214,-13.8721,-9.60061,3.11776,-0.00463685,-2.07897
120579,-10.2012,-13.8455,-9.54989,3.11969,-0.00457381,-2.07757
120641,-10.1786,-13.8153,-9.54824,3.12193,-0.00508501,-2.0762
120708,-10.1526,-13.7829,-9.46512,3.12443,-0.00644141,-2.0749
120770,-10.1264,-13.7477,-9.48028,3.12657,-0.00777258,-2.07362
120836,-10.1044,-13.717,-9.43137,3.12849,-0.00844528,-2.07217
120898,-10.0784,-13.6828,-9.37202,3.13067,-0.00835703,-2.07102
120960,-10.0466,-13.6423,-9.35515,3.13249,-0.00924035,-2.06945
121027,-9.99968,-13.5909,-9.30593,3.13463,-0.011131,-2.06793
121089,-9.9747,-13.5551,-9.39948,3.13619,-0.0128519,-2.06649
121151,-9.95306,-13.5289,-9.41304,3.13779,-0.0132983,-2.06512
121217,-9.92199,-13.4976,-9.43822,3.13949,-0.013215,-2.06376
121279,-9.88898,-13.4683,-9.42706,3.14138,-0.0141249,-2.06246
121345,-9.85201,-13.4365,-9.3414,-3.13986,-0.0155648,-2.06113
121407,-9.82512,-13.4082,-9.35071,-3.13787,-0.0167026,-2.05995
121469,-9.79608,-13.3802,-9.26968,-3.13566,-0.0169065,-2.05882
121535,-9.76586,-13.347,-9.29078,-3.1336,-0.0169958,-2.05737
121597,-9.74386,-13.3228,-9.21513,-3.13132,-0.0175832,-2.05618
121663,-9.72214,-13.2946,-9.15653,-3.12919,-0.0191418,-2.05494
121725,-9.70361,-13.2669,-9.15331,-3.12693,-0.0204657,-2.05379
121787,-9.67572,-13.2338,-9.13753,-3.12523,-0.0206094,-2.05252
121853,-9.64564,-13.1988,-9.15346,-3.12336,-0.0209236,-2.05115
121915,-9.61909,-13.1696,-9.15778,-3.12159,-0.0222055,-2.04994
121977,-9.59766,-13.1454,-9.19531,-3.11992,-0.0242271,-2.04845
122044,-9.56799,-13.1183,-9.19991,-3.11784,-0.0255669,-2.047
122106,-9.5364,-13.0919,-9.11996,-3.11594,-0.0260464,-2.04567
122172,-9.50799,-13.0634,-9.06671,-3.11375,-0.0262253,-2.04416
122234,-9.48006,-13.0337,-9.14221,-3.11188,-0.0271058,-2.04309
122296,-9.44817,-13.0071,-9.02145,-3.10978,-0.0275524,-2.04188
122362,-9.41514,-12.973,-8.84043,-3.10765,-0.0277662,-2.0406
122425,-9.38412,-12.931,-8.77587,-3.10598,-0.0277331,-2.03938
122487,-9.36991,-12.8989,-8.939,-3.10428,-0.0280283,-2.03826
122553,-9.34989,-12.8733,-8.91316,-3.10248,-0.0292197,-2.03698
122615,-9.32651,-12.8456,-8.94056,-3.10082,-0.030392,-2.03559
122682,-9.30322,-12.8202,-8.95934,-3.09902,-0.0313295,-2.03418
122744,-9.281,-12.7984,-8.95606,-3.09724,-0.0322303,-2.03287
122806,-9.25824,-12.7769,-9.01241,-3.09529,-0.0335548,-2.03172
122915,-9.21522,-12.7453,-8.82609,-3.09188,-0.0358011,-2.02971
122977,-9.20332,-12.7258,-8.8935,-3.08981,-0.0366624,-2.02827
123039,-9.18758,-12.7085,-8.82338,-3.08765,-0.0374343,-2.02718
123105,-9.16813,-12.6846,-8.76794,-3.08546,-0.0385043,-2.02611
123167,-9.14783,-12.6583,-8.68859,-3.08338,-0.0397387,-2.02505
123233,-9.13566,-12.633,-8.66776,-3.08146,-0.0407911,-2.02369
123296,-9.12729,-12.6109,-8.7307,-3.07942,-0.0412513,-2.02246
123358,-9.12513,-12.5981,-8.6228,-3.07758,-0.0416334,-2.02133
123424,-9.12444,-12.5792,-8.71165,-3.07587,-0.0427186,-2.02
123486,-9.11898,-12.5643,-8.69003,-3.07408,-0.0439307,-2.01878
123548,-9.09757,-12.5377,-8.7519,-3.07224,-0.0448879,-2.01769
123615,-9.08194,-12.5195,-8.70559,-3.07034,-0.0455746,-2.01642
123677,-9.07125,-12.5031,-8.69497,-3.06862,-0.0459922,-2.01512
123743,-9.04437,-12.4751,-8.58581,-3.0664,-0.046937,-2.01371
123806,-9.02774,-12.4491,-8.62865,-3.06407,-0.0482069,-2.01264
123868,-9.01716,-12.4312,-8.58852,-3.06202,-0.0495179,-2.01154
123934,-9.00523,-12.41,-8.50912,-3.05997,-0.0507713,-2.01021
123996,-8.99261,-12.3851,-8.45545,-3.05797,-0.0517757,-2.00897
124062,-8.97852,-12.3559,-8.47975,-3.05603,-0.052954,-2.00757
124125,-8.96673,-12.3319,-8.4599,-3.05424,-0.0539977,-2.00633
124186,-8.95483,-12.3081,-8.54657,-3.05246,-0.0551507,-2.00513
124252,-8.94355,-12.2902,-8.48919,-3.05075,-0.0565779,-2.00378
124314,-8.93372,-12.2712,-8.51906,-3.04906,-0.057978,-2.0025
124376,-8.92102,-12.2528,-8.4867,-3.04718,-0.0591086,-2.00146
124442,-8.89749,-12.2251,-8.44419,-3.045,-0.0595193,-1.99994
124504,-8.87629,-12.1983,-8.41997,-3.04307,-0.0597787,-1.99862
124570,-8.86954,-12.1804,-8.34985,-3.04087,-0.0608721,-1.99744
124632,-8.86504,-12.1613,-8.31049,-3.03872,-0.0618642,-1.99651
124694,-8.8526,-12.1352,-8.21293,-3.03658,-0.0625084,-1.99547
124760,-8.83704,-12.1007,-8.25511,-3.03466,-0.0622689,-1.99397
124822,-8.81992,-12.0706,-8.24209,-3.03308,-0.062536,-1.99283
124884,-8.7992,-12.0385,-8.30037,-3.03138,-0.0646968,-1.99178
124950,-8.77192,-12.0059,-8.28058,-3.02936,-0.0673453,-1.99078
125012,-8.74889,-11.9773,-8.25599,-3.02782,-0.0684436,-1.98956
125078,-8.72733,-11.9487,-8.26736,-3.02619,-0.0683141,-1.9882
125141,-8.71253,-11.9272,-8.25071,-3.02442,-0.0687698,-1.98685
125203,-8.69361,-11.903,-8.22599,-3.02252,-0.070963,-1.98573
125269,-8.67082,-11.875,-8.23185,-3.0203,-0.0733771,-1.98473
125331,-8.64923,-11.85,-8.13028,-3.01806,-0.0737402,-1.98365
125393,-8.62883,-11.8208,-8.10955,-3.01612,-0.073116,-1.98225
125459,-8.61187,-11.793,-8.02203,-3.01433,-0.0735885,-1.98093
125521,-8.59969,-11.7654,-8.008,-3.01229,-0.0755814,-1.98007
125588,-8.58662,-11.736,-8.03849,-3.0107,-0.0774389,-1.97904
125650,-8.56859,-11.7077,-8.06733,-3.00937,-0.077149,-1.97763
125712,-8.55644,-11.6865,-8.01768,-3.00758,-0.0762813,-1.97617
125778,-8.53191,-11.6537,-7.99614,-3.00588,-0.07752,-1.97499
125885,-8.49621,-11.6042,-8.10027,-3.00291,-0.0812019,-1.97374
125951,-8.47013,-11.5794,-8.0231,-3.00135,-0.0810966,-1.97225
126013,-8.44528,-11.5522,-7.98118,-2.99972,-0.080648,-1.97064
126075,-8.4203,-11.5235,-7.92325,-2.99772,-0.082158,-1.96964
126141,-8.40024,-11.4951,-7.95115,-2.99559,-0.0852537,-1.96885
126203,-8.38185,-11.4717,-7.92922,-2.99363,-0.0870251,-1.96776
126265,-8.35864,-11.4445,-7.82459,-2.99164,-0.0868121,-1.96638
126331,-8.33835,-11.4132,-7.88354,-2.98974,-0.0863433,-1.96485
126394,-8.32004,-11.3891,-7.84253,-2.98803,-0.0877391,-1.96372
126460,-8.30268,-11.3635,-7.78469,-2.98652,-0.0906731,-1.96281
126522,-8.28505,-11.3361,-7.95189,-2.98479,-0.0920752,-1.96175
126584,-8.26412,-11.3177,-7.83739,-2.98305,-0.0914563,-1.9605
126650,-8.2452,-11.294,-7.84495,-2.9812,-0.0909552,-1.959
126712,-8.2349,-11.2783,-7.83337,-2.97926,-0.0921042,-1.95799
126775,-8.22546,-11.263,-7.78143,-2.97728,-0.0943522,-1.95714
126841,-8.21339,-11.2429,-7.77739,-2.97535,-0.0951813,-1.95597
126903,-8.1975,-11.2214,-7.66763,-2.97328,-0.0949174,-1.95451
126970,-8.18244,-11.1936,-7.75444,-2.9713,-0.0953705,-1.95309
127032,-8.16313,-11.1705,-7.74136,-2.96931,-0.0971429,-1.95211
127094,-8.14696,-11.1497,-7.6914,-2.96747,-0.0992034,-1.95116
127160,-8.13112,-11.1264,-7.6456,-2.96539,-0.100028,-1.94998
127222,-8.1154,-11.102,-7.51522,-2.96354,-0.100547,-1.94858
127284,-8.09454,-11.0672,-7.5946,-2.96173,-0.101487,-1.94753
127350,-8.07694,-11.0402,-7.62193,-2.95994,-0.103864,-1.94652
127412,-8.05681,-11.015,-7.67384,-2.9582,-0.105827,-1.94569
127478,-8.0359,-10.9932,-7.56353,-2.95629,-0.10621,-1.94423
127540,-8.02571,-10.9734,-7.60873,-2.95426,-0.106175,-1.94294
127602,-8.01962,-10.96,-7.46794,-2.9526,-0.10708,-1.94173
127668,-8.01793,-10.9407,-7.50899,-2.95078,-0.108995,-1.94106
127730,-8.00718,-10.9195,-7.53349,-2.94896,-0.11019,-1.94017
127796,-7.9925,-10.8972,-7.45572,-2.94712,-0.109744,-1.93863
127858,-7.97558,-10.8704,-7.47692,-2.94559,-0.109265,-1.93717
127920,-7.95145,-10.8409,-7.41641,-2.94392,-0.110558,-1.93607
127987,-7.92662,-10.8075,-7.52112,-2.94191,-0.113143,-1.93514
128049,-7.90898,-10.7879,-7.43572,-2.94022,-0.114641,-1.93414
128111,-7.88585,-10.7603,-7.39634,-2.93831,-0.115217,-1.93275
128177,-7.85949,-10.7283,-7.43696,-2.93656,-0.116008,-1.93146
128239,-7.83424,-10.7018,-7.38179,-2.9347,-0.117945,-1.9307
128306,-7.81748,-10.6781,-7.36866,-2.93284,-0.120549,-1.92952
128368,-7.80084,-10.6556,-7.30008,-2.93109,-0.122169,-1.92839
128430,-7.79041,-10.6341,-7.29548,-2.92932,-0.123118,-1.92712
128496,-7.78077,-10.613,-7.33173,-2.92756,-0.124343,-1.92594
128559,-7.76785,-10.5934,-7.26738,-2.92576,-0.125691,-1.92481
128621,-7.7545,-10.5706,-7.29126,-2.92416,-0.126891,-1.92376
128687,-7.73779,-10.5473,-7.3007,-2.92238,-0.127556,-1.92258
128750,-7.72046,-10.5256,-7.2414,-2.92042,-0.127944,-1.9215
128860,-7.67844,-10.4757,-7.18429,-2.91754,-0.128782,-1.92008
128922,-7.65398,-10.4452,-7.17218,-2.91581,-0.129275,-1.91886
128985,-7.62964,-10.4152,-7.16172,-2.91408,-0.129829,-1.91782
129051,-7.60378,-10.3842,-7.12957,-2.91237,-0.130522,-1.9167
129113,-7.57547,-10.3517,-7.12252,-2.91069,-0.131723,-1.91567
129175,-7.54552,-10.319,-7.13931,-2.90895,-0.133029,-1.91458
129242,-7.51156,-10.2853,-7.13007,-2.90713,-0.134749,-1.91348
129304,-7.48747,-10.2599,-7.04723,-2.90537,-0.136697,-1.91242
129383,-7.45544,-10.222,-7.06985,-2.90329,-0.139159,-1.9111
129445,-7.44007,-10.2017,-7.08981,-2.90128,-0.140579,-1.91011
129507,-7.42564,-10.1842,-7.04831,-2.89961,-0.14208,-1.90905
129573,-7.40145,-10.1576,-7.0748,-2.89778,-0.143545,-1.9079
129635,-7.37001,-10.1293,-7.05293,-2.89599,-0.144459,-1.90689
129697,-7.3492,-10.1083,-7.08735,-2.89402,-0.145222,-1.90599
129763,-7.32204,-10.0856,-6.90678,-2.89193,-0.145685,-1.90488
129825,-7.28824,-10.0486,-6.92205,-2.89026,-0.145887,-1.90387
129891,-7.25868,-10.0164,-6.87973,-2.88854,-0.146208,-1.90285
129954,-7.23496,-9.98745,-6.90978,-2.88695,-0.146732,-1.90191
130016,-7.21454,-9.96407,-6.87058,-2.88562,-0.147469,-1.90086
130082,-7.19161,-9.93693,-6.86627,-2.88411,-0.148264,-1.89977
130144,-7.1683,-9.91109,-6.98323,-2.88255,-0.149187,-1.89879
130206,-7.14871,-9.89602,-6.90407,-2.88084,-0.150198,-1.89766
130272,-7.13182,-9.87832,-6.92833,-2.879,-0.151963,-1.89669
130334,-7.12015,-9.8668,-6.88668,-2.87688,-0.153815,-1.89577
130400,-7.10553,-9.85088,-6.83265,-2.87505,-0.155518,-1.89457
130462,-7.08845,-9.831,-6.7818,-2.87317,-0.157217,-1.89352
130524,-7.07148,-9.80895,-6.77334,-2.8715,-0.158651,-1.89248
130590,-7.05836,-9.7894,-6.74967,-2.86936,-0.160821,-1.89174
130652,-7.04177,-9.76745,-6.73686,-2.86791,-0.162293,-1.89093
130718,-7.0228,-9.7434,-6.73276,-2.86588,-0.163035,-1.88982
130780,-7.00879,-9.72418,-6.78369,-2.86449,-0.163125,-1.88858
130842,-6.99939,-9.71208,-6.70885,-2.86263,-0.163595,-1.8875
130908,-6.98819,-9.69411,-6.78652,-2.86105,-0.164385,-1.8867
130970,-6.97641,-9.68182,-6.6427,-2.85946,-0.164801,-1.88569
131032,-6.96079,-9.65867,-6.68952,-2.85768,-0.164877,-1.88473
131098,-6.9331,-9.6305,-6.78743,-2.85565,-0.164932,-1.88349
131161,-6.90386,-9.6089,-6.80616,-2.85381,-0.165834,-1.88236
131227,-6.88368,-9.5957,-6.61583,-2.85192,-0.167713,-1.88133
131289,-6.86951,-9.57563,-6.62203,-2.84987,-0.169319,-1.88047
131351,-6.86339,-9.56235,-6.51123,-2.84819,-0.17077,-1.87931
131417,-6.86462,-9.54705,-6.5884,-2.8464,-0.172333,-1.87803
131479,-6.86229,-9.53559,-6.53749,-2.84458,-0.174096,-1.87703
131542,-6.86041,-9.52164,-6.54827,-2.84283,-0.176413,-1.8763
131608,-6.84641,-9.50007,-6.49699,-2.84113,-0.178411,-1.87518
131670,-6.83789,-9.48079,-6.54789,-2.83963,-0.180233,-1.87421
131783,-6.81335,-9.44715,-6.55058,-2.83653,-0.181517,-1.87208
131845,-6.8058,-9.43406,-6.56201,-2.83447,-0.182268,-1.87117
131907,-6.79522,-9.42014,-6.52506,-2.83255,-0.183072,-1.87018
131973,-6.78579,-9.40485,-6.50849,-2.83048,-0.184132,-1.86924
132035,-6.78228,-9.39382,-6.34004,-2.82847,-0.18446,-1.86825
132097,-6.77094,-9.36763,-6.37426,-2.82686,-0.18449,-1.86713
132164,-6.75517,-9.34039,-6.36219,-2.82535,-0.185065,-1.86584
132226,-6.75085,-9.3227,-6.12279,-2.82382,-0.186029,-1.86484
132292,-6.73548,-9.28181,-6.30607,-2.82215,-0.187775,-1.86397
132354,-6.71795,-9.25408,-6.37052,-2.8207,-0.189374,-1.8629
132416,-6.70008,-9.23121,-6.22666,-2.81918,-0.190528,-1.86192
132482,-6.68176,-9.19915,-6.1565,-2.81771,-0.192254,-1.86074
132544,-6.66126,-9.16384,-6.37247,-2.816,-0.194233,-1.85984
132607,-6.63642,-9.14004,-6.36087,-2.81391,-0.196717,-1.85905
132673,-6.60672,-9.11293,-6.31859,-2.81205,-0.198899,-1.85826
132735,-6.57734,-9.08501,-6.29036,-2.81008,-0.199795,-1.85707
132801,-6.55037,-9.05774,-6.20721,-2.80807,-0.200631,-1.85584
132863,-6.52587,-9.0288,-6.19279,-2.80651,-0.201956,-1.85492
132926,-6.50334,-9.00141,-6.21759,-2.80459,-0.20385,-1.85451
132992,-6.48037,-8.97604,-6.19406,-2.80288,-0.204809,-1.85343
133054,-6.45028,-8.94594,-6.20294,-2.80157,-0.204811,-1.85215
133116,-6.42144,-8.91853,-6.20765,-2.80016,-0.205188,-1.85107
133182,-6.38979,-8.8903,-6.21148,-2.79873,-0.206712,-1.85035
133244,-6.36435,-8.86815,-6.21663,-2.79703,-0.207945,-1.84973
133310,-6.3415,-8.84887,-6.17065,-2.79529,-0.208428,-1.84846
133372,-6.32338,-8.83109,-6.23667,-2.79358,-0.208475,-1.84709
133434,-6.31102,-8.82206,-6.12317,-2.79177,-0.209609,-1.84628
133500,-6.30025,-8.8072,-6.13231,-2.78951,-0.211802,-1.84551
133562,-6.29305,-8.79644,-6.04134,-2.78734,-0.213795,-1.84464
133628,-6.28544,-8.77965,-5.98436,-2.78558,-0.215129,-1.84337
133690,-6.27384,-8.75805,-5.9973,-2.78388,-0.216309,-1.84207
133752,-6.26516,-8.74018,-5.68654,-2.78211,-0.218137,-1.84117
133819,-6.24881,-8.69657,-5.97704,-2.78031,-0.220771,-1.84055
133881,-6.23915,-8.67943,-5.97817,-2.77875,-0.222516,-1.83977
133943,-6.23025,-8.66362,-6.0124,-2.77735,-0.223422,-1.83853
134009,-6.22024,-8.64937,-6.01711,-2.77564,-0.223857,-1.8374
134072,-6.208,-8.63481,-6.02462,-2.77415,-0.224895,-1.83647
134138,-6.19504,-8.62062,-6.06078,-2.77252,-0.226419,-1.83589
134200,-6.18247,-8.6098,-6.02687,-2.77069,-0.227538,-1.83513
134262,-6.17069,-8.59794,-5.93485,-2.76858,-0.230055,-1.835
134329,-6.16192,-8.58241,-5.95266,-2.76649,-0.229948,-1.83361
134391,-6.1543,-8.57009,-5.93072,-2.76464,-0.230815,-1.83281
134453,-6.14572,-8.55632,-5.83424,-2.76261,-0.232515,-1.83228
134520,-6.13222,-8.53286,-5.86377,-2.76065,-0.23433,-1.83152
134582,-6.11991,-8.51403,-5.82989,-2.75909,-0.235339,-1.83033
134694,-6.10572,-8.48386,-5.8653,-2.75639,-0.238144,-1.82853
134756,-6.09476,-8.46817,-5.85881,-2.75484,-0.240567,-1.82774
134819,-6.07939,-8.44958,-5.83875,-2.75297,-0.242481,-1.82698
134885,-6.06177,-8.42863,-5.78508,-2.75087,-0.244017,-1.82575
134947,-6.0482,-8.40864,-5.85268,-2.74919,-0.244988,-1.82469
135009,-6.03948,-8.39695,-5.79331,-2.74728,-0.246087,-1.82369
135075,-6.0433,-8.39029,-5.74582,-2.74516,-0.247599,-1.82292
135137,-6.04605,-8.38085,-5.71192,-2.74324,-0.248744,-1.82211
135203,-6.04072,-8.36335,-5.73022,-2.74166,-0.249171,-1.8208
135265,-6.0324,-8.34645,-5.6871,-2.74006,-0.249384,-1.81951
135327,-6.01841,-8.32375,-5.65496,-2.73834,-0.250135,-1.81851
135393,-6.00227,-8.29771,-5.70074,-2.73656,-0.252035,-1.81787
135455,-5.98653,-8.27671,-5.66423,-2.73515,-0.253475,-1.81705
135517,-5.97442,-8.2569,-5.68825,-2.73371,-0.254946,-1.81617
135583,-5.95877,-8.2364,-5.65597,-2.73208,-0.256037,-1.81495
135645,-5.93972,-8.21302,-5.69013,-2.73039,-0.257274,-1.81417
135712,-5.93214,-8.2001,-5.65212,-2.72847,-0.259213,-1.8134
135774,-5.93078,-8.19029,-5.67331,-2.72653,-0.260637,-1.81259
135836,-5.91696,-8.17357,-5.6011,-2.72457,-0.262157,-1.8116
135902,-5.90519,-8.15392,-5.54831,-2.72273,-0.263664,-1.81066
135964,-5.89308,-8.13235,-5.57696,-2.72089,-0.265224,-1.80983
136026,-5.87454,-8.109,-5.55061,-2.71893,-0.266426,-1.80873
136092,-5.85211,-8.08168,-5.41757,-2.71723,-0.267821,-1.80775
136154,-5.83475,-8.05164,-5.44924,-2.71578,-0.26992,-1.80706
136220,-5.82109,-8.02646,-5.52881,-2.71418,-0.271693,-1.80632
136282,-5.80958,-8.00959,-5.4945,-2.71273,-0.272765,-1.80554
136344,-5.80582,-7.99673,-5.53535,-2.7112,-0.273689,-1.80461
136410,-5.79596,-7.98222,-5.51219,-2.70945,-0.273927,-1.80317
136472,-5.78698,-7.968,-5.62066,-2.70772,-0.274672,-1.80199
136538,-5.77536,-7.95909,-5.38819,-2.70604,-0.275838,-1.80092
136600,-5.76126,-7.9348,-5.47518,-2.70445,-0.277014,-1.80019
136662,-5.73963,-7.9116,-5.41039,-2.70247,-0.277899,-1.79916
136728,-5.72151,-7.88722,-5.38822,-2.70076,-0.278725,-1.79783
136790,-5.70729,-7.86592,-5.3988,-2.69924,-0.280216,-1.79701
136852,-5.69409,-7.84688,-5.36515,-2.69746,-0.282358,-1.79637
136918,-5.68177,-7.82653,-5.36609,-2.6959,-0.284918,-1.79554
136981,-5.66511,-7.80465,-5.34156,-2.69423,-0.28658,-1.79465
137047,-5.64807,-7.78145,-5.33808,-2.69275,-0.288327,-1.79362
137109,-5.63797,-7.7645,-5.42109,-2.69125,-0.290168,-1.79278
137171,-5.62155,-7.74894,-5.45982,-2.68939,-0.29211,-1.79216
137238,-5.60178,-7.73401,-5.41848,-2.68711,-0.293931,-1.79144
137300,-5.58912,-7.72219,-5.34565,-2.68554,-0.294847,-1.79029
137362,-5.58005,-7.70895,-5.30848,-2.68374,-0.294868,-1.78917
137428,-5.57051,-7.69317,-5.27423,-2.68221,-0.295282,-1.78799
137491,-5.56651,-7.68019,-5.06092,-2.68053,-0.295814,-1.78698
137557,-5.56558,-7.6557,-5.21532,-2.67896,-0.296567,-1.78597
137667,-5.5534,-7.62643,-5.22523,-2.67653,-0.299003,-1.78461
137729,-5.54481,-7.61033,-5.18213,-2.67504,-0.300477,-1.7839
137795,-5.53162,-7.58837,-5.27371,-2.67312,-0.302455,-1.78286
137857,-5.51189,-7.56913,-5.31033,-2.67137,-0.304109,-1.78211
137919,-5.49207,-7.55288,-5.19857,-2.66964,-0.30591,-1.78152
137986,-5.46878,-7.52749,-5.24637,-2.66776,-0.308006,-1.78061
138048,-5.44475,-7.50623,-5.22558,-2.66567,-0.309489,-1.7799
138114,-5.41944,-7.48344,-5.12078,-2.66373,-0.311337,-1.77896
138176,-5.39881,-7.45881,-5.16687,-2.66202,-0.312528,-1.7781
138238,-5.37463,-7.43557,-5.14684,-2.66055,-0.313422,-1.77699
138305,-5.3619,-7.41951,-5.12075,-2.65882,-0.314563,-1.77619
138367,-5.34902,-7.40298,-5.12132,-2.65739,-0.315571,-1.77523
138429,-5.33833,-7.3887,-5.15505,-2.65593,-0.316535,-1.77416
138495,-5.31557,-7.36849,-5.10755,-2.65443,-0.317116,-1.77296
138557,-5.29418,-7.34746,-5.08349,-2.65286,-0.317875,-1.77205
138624,-5.2833,-7.33262,-5.17266,-2.65117,-0.318885,-1.77106
138686,-5.2705,-7.32301,-5.11604,-2.64942,-0.320144,-1.77047
138748,-5.26023,-7.31214,-5.09508,-2.6478,-0.321522,-1.76957
138814,-5.2526,-7.302,-5.09239,-2.64623,-0.323515,-1.76859
