Time (ms),Altitude,Vertical Velocity,Vertical Acceleration,Yaw,Pitch,Roll
1122382,0,0,-9.76,0,0,0
1122431,3.16065,1.72676,-9.63569,-0.0014874,-0.0176381,0.00197312
1122480,6.18324,3.30474,-9.79759,-0.00253827,-0.0391923,0.00446737
1122533,9.30096,4.83746,-9.88752,-0.00423547,-0.0587943,0.00665629
1122582,12.0386,6.09928,-9.76813,-0.00584354,-0.0759338,0.00870727
1122631,14.6515,7.23722,-9.7655,-0.007494,-0.0960096,0.0108089
1122684,17.3402,8.32918,-9.75827,-0.00932666,-0.1156,0.0131064
1122733,19.6908,9.2093,-9.75104,-0.0110642,-0.133219,0.0152628
1122782,21.9153,9.97214,-9.6562,-0.0128558,-0.154753,0.0175035
1122831,24.0169,10.6282,-9.63498,-0.0146943,-0.173834,0.0197568
1122884,26.1651,11.227,-9.61258,-0.0160976,-0.191297,0.0216472
1122933,28.0343,11.6808,-9.6305,-0.0175442,-0.210861,0.0239836
1122982,29.7897,12.0393,-9.53134,-0.019052,-0.23189,0.0263873
1123031,31.4355,12.3141,-9.70905,-0.0205989,-0.249488,0.0287651
1123084,33.1141,12.5211,-9.66377,-0.0223327,-0.269047,0.0313932
1123133,34.5526,12.629,-9.55565,-0.0246315,-0.288094,0.0344073
1123182,35.9042,12.6781,-9.61555,-0.0263395,-0.304698,0.0368998
1123235,37.2663,12.6569,-9.61897,-0.0288113,-0.325831,0.0397435
1123285,38.4516,12.5681,-9.56979,-0.031412,-0.347245,0.0430765
1123334,39.5225,12.4235,-9.49412,-0.0338244,-0.364811,0.0457802
1123383,40.5067,12.2272,-9.51139,-0.0362972,-0.381881,0.0485294
1123436,41.4891,11.9644,-9.48816,-0.0390948,-0.402986,0.0516868
1123485,42.3255,11.6813,-9.48073,-0.0417692,-0.42249,0.0546894
1123534,43.0864,11.3557,-9.31864,-0.0442745,-0.440539,0.0571646
1123588,43.845,10.9628,-9.38597,-0.04742,-0.462017,0.0606622
1123637,44.4594,10.5644,-9.37413,-0.0503643,-0.481007,0.0639079
1123686,45.0103,10.136,-9.38389,-0.0531176,-0.499037,0.0666343
1123783,45.9606,9.23347,-9.47973,-0.0585012,-0.537555,0.0735842
1123836,46.3534,8.67324,-9.4148,-0.0615263,-0.555944,0.0773638
1123885,46.6604,8.13776,-9.32163,-0.0648023,-0.574372,0.0816507
1123934,46.9217,7.59327,-9.40768,-0.0682595,-0.593765,0.0861428
1123983,47.1428,7.03519,-9.33435,-0.0719489,-0.611713,0.0900577
1124036,47.3374,6.42584,-9.41576,-0.0764721,-0.631072,0.0950959
1124085,47.479,5.85189,-9.28764,-0.0808516,-0.649441,0.0999658
1124134,47.582,5.27679,-9.19403,-0.0849941,-0.667346,0.104334
1124187,47.6584,4.65744,-9.14822,-0.0897737,-0.688279,0.10942
1124237,47.6915,4.0691,-9.17354,-0.0944483,-0.707512,0.11436
1124286,47.6894,3.48723,-9.42184,-0.0992518,-0.725902,0.118688
1124335,47.6643,2.89721,-9.15606,-0.103844,-0.745251,0.12334
1124388,47.6099,2.27656,-9.21084,-0.109046,-0.766162,0.128607
1124438,47.528,1.68802,-9.15536,-0.113633,-0.785374,0.13373
1124487,47.4208,1.11505,-9.05125,-0.118415,-0.804671,0.139055
1124540,47.2702,0.498546,-9.30462,-0.123727,-0.824471,0.1449
1124590,47.1151,-0.0836927,-9.00532,-0.129557,-0.843066,0.151422
1124639,46.9468,-0.631531,-9.4089,-0.136222,-0.862233,0.158321
1124688,46.7631,-1.1909,-9.59663,-0.142995,-0.879914,0.165252
1124754,46.4914,-1.94328,-10.3172,-0.153487,-0.903577,0.176191
1124802,46.2708,-2.51873,-7.19668,-0.162694,-0.920662,0.185405
1124851,46.0407,-2.93952,-8.45248,-0.172429,-0.938129,0.194496
1124900,45.8068,-3.4091,-7.65351,-0.181936,-0.956508,0.204395
1124953,45.5484,-3.86121,-8.38947,-0.191809,-0.975382,0.214465
1125001,45.3059,-4.29695,-8.73285,-0.200663,-0.991956,0.223946
1125050,45.0577,-4.74376,-8.56931,-0.211229,-1.01026,0.234748
1125103,44.7776,-5.20947,-8.69652,-0.223302,-1.03102,0.247666
1125152,44.5135,-5.6345,-8.72705,-0.235627,-1.04966,0.26025
1125201,44.2506,-6.04564,-8.7138,-0.247277,-1.06787,0.272489
1125250,43.9904,-6.44031,-8.93096,-0.260302,-1.086,0.285612
1125303,43.7006,-6.86915,-8.83395,-0.27494,-1.10449,0.300287
1125352,43.426,-7.25157,-8.92591,-0.290395,-1.1229,0.315871
1125401,43.1441,-7.63044,-8.90598,-0.307477,-1.14166,0.333114
1125454,42.8399,-8.02423,-8.86341,-0.327665,-1.16014,0.35348
1125503,42.57,-8.36544,-8.75975,-0.347188,-1.17613,0.373102
1125552,42.3075,-8.68491,-8.6343,-0.370815,-1.19316,0.397019
1125601,42.0431,-8.9888,-8.79451,-0.394951,-1.2097,0.421323
1125654,41.7625,-9.31038,-8.31337,-0.423763,-1.22615,0.450332
1125703,41.5119,-9.56792,-8.49317,-0.454806,-1.24241,0.48166
1125752,41.2675,-9.82101,-8.5175,-0.48507,-1.25725,0.51252
1125802,41.015,-10.0738,-9.05692,-0.51983,-1.2725,0.547921
1125848,40.7836,-10.3222,-9.09211,-0.558424,-1.28711,0.587728
1125897,40.4246,-10.6582,-17.1817,-0.697591,-1.34392,0.724398
1125947,40.1117,-11.3495,-2.55642,-0.619327,-1.30892,0.630873
1126000,39.8424,-11.2519,-0.928977,-0.637971,-1.31399,0.652904
1126049,39.6408,-11.0535,-2.84111,-0.638488,-1.3137,0.654451
1126147,39.3827,-10.7587,-11.0914,-0.663038,-1.30661,0.671746
1126196,39.3073,-10.9789,-9.44061,-0.667656,-1.30333,0.678563
1126249,39.3202,-11.0572,-8.31733,-0.678356,-1.30607,0.694598
1126299,39.4247,-11.0091,-9.81651,-0.691444,-1.31515,0.715901
1126348,39.6035,-10.9827,-8.41708,-0.708981,-1.33036,0.744607
1126401,39.8935,-10.8153,-8.63238,-0.74239,-1.35392,0.793052
1126450,40.2624,-10.6063,-11.1369,-0.780175,-1.37916,0.848147
1126499,40.7238,-10.4608,-7.11514,-0.822258,-1.40464,0.908833
1126548,41.2825,-10.0589,-9.28171,-0.873939,-1.43106,0.978966
1126601,42.0105,-9.6664,-10.8395,-0.973022,-1.46042,1.09965
1126650,42.816,-9.29939,-6.87575,-1.13235,-1.48627,1.27941
1126699,43.7771,-8.64581,-8.84327,-1.45219,-1.50799,1.62022
1126752,44.9904,-7.94571,-9.02638,-2.07916,-1.51555,2.26891
1126801,46.2856,-7.20957,-8.09794,-2.60074,-1.49743,2.80819
1126850,47.7784,-6.31647,-9.08104,-2.86057,-1.46355,3.08379
1126899,49.4821,-5.35458,-10.4254,-2.96599,-1.42367,-3.08277
1126952,51.5666,-4.25311,-6.88205,-3.0083,-1.37399,-3.03446
1127002,53.7477,-2.92804,-7.16338,-3.02472,-1.32359,-3.01712
1127051,56.0892,-1.5458,-8.48275,-3.03255,-1.27046,-3.01306
1127100,58.6512,-0.120982,-11.6599,-3.03852,-1.21323,-3.01555
1127153,61.6483,1.35713,-10.2155,-3.04845,-1.14602,-3.01915
1127201,64.5322,2.83487,-7.94046,-3.05913,-1.08473,-3.02221
1127250,67.666,4.53406,-10.1146,-3.07274,-1.01978,-3.02516
1127303,71.2705,6.34291,-9.02101,-3.08828,-0.951207,-3.02814
1127352,74.7964,8.1431,-8.46165,-3.1005,-0.889838,-3.03064
1127401,78.5397,10.0601,-9.02141,-3.10976,-0.831459,-3.03263
1127450,82.4797,12.0215,-8.2647,-3.11575,-0.775566,-3.03384
1127503,86.9812,14.2738,-6.25837,-3.11626,-0.716189,-3.03466
1127552,91.365,16.5332,-6.95833,-3.10998,-0.664226,-3.03528
1127601,95.9789,18.8419,-5.67594,-3.10253,-0.612751,-3.03546
1127650,100.831,21.2995,-8.80753,-3.09066,-0.561744,-3.03564
1127703,106.335,23.878,-9.33002,-3.07581,-0.507605,-3.03567
1127752,111.667,26.3214,-10.3122,-3.06464,-0.457589,-3.0344
1127801,117.256,28.8131,-11.2323,-3.05633,-0.40665,-3.03201
1127854,123.58,31.558,-10.1726,-3.05488,-0.346817,-3.02875
1127903,129.64,34.2054,-10.2908,-3.05502,-0.290566,-3.02516
1127952,135.942,36.9253,-10.9226,-3.06012,-0.232437,-3.0206
1128001,142.488,39.6916,-9.48635,-3.06841,-0.17383,-3.01597
1128055,149.979,42.899,-8.57322,-3.07829,-0.110317,-3.01104
1128104,156.985,45.8947,-10.3763,-3.08697,-0.0531603,-3.00667
1128153,164.234,48.8704,-8.1379,-3.09047,0.000677189,-3.00431
1128206,172.333,52.2708,-5.07404,-3.09256,0.0526199,-3.00329
1128255,180.046,55.6069,-6.62966,-3.09453,0.10216,-3.00337
1128305,188.186,59.0056,-7.6005,-3.08967,0.149267,-3.00454
1128354,196.402,62.3407,-8.60203,-3.09092,0.196437,-3.00607
1128407,205.555,65.9524,-9.72889,-3.09089,0.246425,-3.00836
1128456,214.222,69.2617,-10.8951,-3.08884,0.294574,-3.00985
1128555,232.358,75.9257,-11.4702,-3.09836,0.398499,-3.00875
1128604,241.191,78.9265,-8.18995,-3.10366,0.451932,-3.00853
1128657,251.181,82.531,-8.44901,-3.11495,0.508135,-3.00887
1128706,260.696,85.9268,-11.7066,-3.12007,0.560107,-3.01026
1128755,270.493,89.2464,-8.21232,-3.1218,0.612085,-3.0125
1128808,281.371,93.0859,-9.0268,-3.12126,0.664067,-3.01516
1128857,291.619,96.6043,-7.35426,-3.12332,0.712135,-3.0184
1128906,302.089,100.237,-9.40205,-3.12067,0.760693,-3.02174
1128955,312.749,103.78,-3.9238,-3.12266,0.807793,-3.02596
1129008,324.472,107.894,-6.46716,-3.12414,0.861379,-3.03082
1129057,335.412,111.513,-9.84436,-3.12609,0.907947,-3.0327
1129107,346.671,114.978,-13.3042,-3.13231,0.95747,-3.0367
1129160,358.673,118.386,-7.33438,3.14116,1.01205,-3.0401
1129209,369.794,121.731,-3.87001,3.13972,1.05908,-3.04405
1129258,381.008,125.193,-8.75684,3.13669,1.10758,-3.04858
1129308,392.536,128.423,-9.70686,3.13586,1.15756,-3.05392
1129361,404.779,131.692,-12.916,3.12685,1.20838,-3.0665
1129410,416.053,134.421,-10.1023,3.10774,1.25825,-3.08052
1129459,427.316,137.185,-8.83042,3.08729,1.30609,-3.09827
1129512,439.493,140.13,-13.9478,3.06106,1.35776,-3.12199
1129561,450.69,142.469,-8.93724,3.02601,1.40726,3.12204
1129610,461.955,145.016,-13.8358,2.95408,1.45826,3.04746
1129659,473.248,147.26,-14.0797,2.76561,1.50876,2.85686
1129712,485.446,149.577,-9.57369,1.56616,1.54529,1.65985
1129761,496.656,151.813,-11.5595,0.513966,1.51207,0.60995
1129810,507.825,153.849,-14.8063,0.304784,1.4628,0.399125
1129858,518.703,155.579,-9.64704,0.223752,1.41185,0.32175
1129911,530.66,157.653,-6.59799,0.180086,1.35618,0.277867
1129960,541.583,159.558,-6.54992,0.157403,1.30691,0.25503
1130010,552.654,161.386,-10.7099,0.141856,1.25505,0.238291
1130063,564.291,162.969,-9.2432,0.128635,1.20219,0.224824
1130112,574.916,164.359,-9.08706,0.122261,1.15218,0.217394
1130161,585.472,165.66,-7.77618,0.119905,1.10314,0.211533
1130210,595.95,166.926,-7.58758,0.117265,1.05117,0.205755
1130263,607.181,168.186,-7.78195,0.10795,0.995525,0.199814
1130313,617.646,169.232,-13.2244,0.100402,0.940029,0.194901
1130362,627.805,169.893,-6.30281,0.0988843,0.888942,0.192986
1130415,638.707,170.882,-12.7506,0.0938539,0.833157,0.191246
1130464,648.658,171.365,-11.5541,0.0905787,0.782064,0.190104
1130513,658.511,171.82,-12.2505,0.0904597,0.7319,0.189931
1130563,668.461,172.162,-10.6214,0.0894512,0.681709,0.189918
1130616,678.889,172.515,-7.72213,0.0837896,0.625433,0.188452
1130665,688.407,172.883,-8.05054,0.0783824,0.574493,0.185819
1130714,697.839,173.163,-6.85205,0.0754359,0.52407,0.182991
1130762,706.996,173.427,-12.1365,0.0764126,0.476072,0.181025
1130815,717.01,173.366,-9.36338,0.0730389,0.419945,0.178132
1130916,735.808,173.333,-7.66038,0.0677781,0.311751,0.177543
1130965,744.321,172.977,-10.4864,0.0643369,0.259221,0.177503
1131018,753.567,172.486,-11.1088,0.0594581,0.200325,0.177026
1131067,762.079,171.992,-8.70173,0.059045,0.149751,0.177468
1131116,770.579,171.624,-8.3396,0.0590969,0.0986883,0.177886
1131165,779.06,171.272,-7.57151,0.0615749,0.0481142,0.178268
1131218,788.183,170.91,-8.83946,0.0578508,-0.00810891,0.17756
1131267,796.535,170.468,-10.6934,0.05934,-0.0596027,0.176993
1131316,804.837,169.918,-9.50567,0.0583703,-0.111614,0.176872
1131365,813.077,169.4,-10.8973,0.054457,-0.164603,0.176823
1131418,821.923,168.742,-10.5346,0.0544396,-0.221387,0.176914
1131467,829.98,168.087,-7.80619,0.0496235,-0.274839,0.176573
1131516,837.978,167.545,-8.00413,0.0485081,-0.325871,0.17703
1131569,846.576,166.933,-10.7681,0.048011,-0.382627,0.176935
1131618,854.443,166.197,-9.10193,0.0472645,-0.435079,0.176348
1131668,862.425,165.522,-9.21835,0.0463121,-0.490574,0.175122
1131717,870.165,164.821,-10.6928,0.045723,-0.542605,0.176315
1131770,878.469,163.965,-8.74512,0.0442044,-0.598785,0.175202
1131819,886.041,163.223,-10.6838,0.043797,-0.650239,0.174223
1131868,893.573,162.384,-9.54327,0.0416872,-0.703203,0.174462
1131921,901.668,161.533,-8.93462,0.0415411,-0.761568,0.175473
1131969,908.906,160.752,-11.2824,0.0378368,-0.81347,0.176635
1132018,916.236,159.829,-7.78657,0.0306621,-0.866953,0.179031
1132067,923.508,159.065,-11.1194,0.0227665,-0.919933,0.182245
1132120,931.304,158.046,-9.36845,0.0126595,-0.977744,0.186854
1132169,938.433,157.167,-10.924,0.00586885,-1.03068,0.191416
1132218,945.516,156.211,-10.5981,-0.0017098,-1.08457,0.196176
1132267,952.553,155.272,-11.4625,-0.00660933,-1.13796,0.201094
1132320,960.106,154.206,-12.4592,-0.0137945,-1.19463,0.206602
1132369,966.992,153.14,-11.6337,-0.0208565,-1.248,0.213594
1132418,973.832,152.118,-11.9344,-0.0305773,-1.30184,0.221705
1132471,981.184,151.004,-8.89697,-0.0449713,-1.36004,0.235426
1132520,987.911,150.108,-8.78716,-0.0713662,-1.41425,0.260768
1132569,994.593,149.218,-6.646,-0.1281,-1.46774,0.313517
1132618,1001.24,148.437,-9.10489,-0.301474,-1.51969,0.486363
1132671,1008.39,147.463,-10.3074,-1.99967,-1.55171,2.18187
1132720,1014.93,146.488,-10.0494,-2.8692,-1.50657,3.04941
1132769,1021.43,145.536,-11.1303,-2.98239,-1.45402,-3.12311
1132818,1027.91,144.546,-11.5525,-3.02553,-1.40091,-3.08201
1132872,1035,143.44,-8.16891,-3.04691,-1.3427,-3.06186
1132921,1041.38,142.591,-7.79325,-3.06163,-1.28938,-3.04919
1132970,1047.73,141.773,-9.49224,-3.07191,-1.23651,-3.04098
1133023,1054.56,140.805,-10.2098,-3.07936,-1.1798,-3.03641
1133072,1060.8,139.859,-13.3792,-3.08689,-1.12738,-3.03247
1133121,1067.01,138.766,-9.02037,-3.08909,-1.07447,-3.02945
1133170,1073.18,137.891,-10.4268,-3.09434,-1.02256,-3.02622
1133275,1086.28,135.896,-9.10776,-3.10026,-0.908206,-3.02285
1133324,1091.97,134.787,-10.8021,-3.10191,-0.856241,-3.02262
1133373,1097.74,133.687,-11.9513,-3.10208,-0.802808,-3.02239
1133426,1104.04,132.52,-9.84186,-3.1048,-0.745524,-3.02304
1133475,1109.87,131.584,-9.48601,-3.10722,-0.691602,-3.0231
1133524,1115.74,130.728,-10.718,-3.11028,-0.638201,-3.02211
1133573,1121.64,129.859,-9.4455,-3.11509,-0.584309,-3.02141
1133626,1128.04,129.033,-9.2313,-3.11935,-0.526029,-3.02036
1133675,1133.93,128.283,-8.95926,-3.12263,-0.472144,-3.01965
1133724,1139.8,127.565,-9.66553,-3.12528,-0.418274,-3.01806
1133773,1145.65,126.823,-9.8752,-3.12922,-0.366358,-3.01672
1133827,1152.09,126.012,-9.19769,-3.13108,-0.306979,-3.016
1133876,1157.86,125.291,-9.51471,-3.13207,-0.25358,-3.01595
1133925,1163.62,124.566,-9.5914,-3.13305,-0.199201,-3.01595
1133978,1169.81,123.786,-10.0799,-3.13348,-0.14144,-3.01654
1134027,1175.5,123.038,-8.65137,-3.13336,-0.0885225,-3.01759
1134076,1181.17,122.372,-8.79271,-3.13474,-0.0336431,-3.01913
1134125,1186.82,121.71,-8.72943,-3.1357,0.0202584,-3.02124
1134179,1193.03,120.992,-9.80643,-3.13742,0.079651,-3.0231
1134228,1198.6,120.27,-10.087,-3.13859,0.133545,-3.02488
1134277,1204.15,119.546,-9.88507,-3.14035,0.187925,-3.02675
1134326,1209.68,118.84,-10.464,3.14094,0.241323,-3.02873
1134379,1215.64,118.062,-10.1091,3.13834,0.299603,-3.0305
1134427,1221,117.369,-9.93066,3.13554,0.352386,-3.03177
1134476,1226.47,116.698,-9.60125,3.13223,0.406757,-3.03275
1134529,1232.37,116.004,-9.85837,3.12958,0.465032,-3.03402
1134578,1237.79,115.345,-8.71922,3.1275,0.51892,-3.03427
1134627,1243.19,114.746,-6.72795,3.12664,0.572816,-3.03404
1134676,1248.56,114.245,-8.96234,3.12642,0.626704,-3.03443
1134729,1254.33,113.582,-9.5034,3.12669,0.68446,-3.03485
1134778,1259.62,112.936,-7.89474,3.12692,0.738348,-3.03526
1134827,1264.9,112.378,-10.4576,3.12613,0.792718,-3.03639
1134880,1270.59,111.648,-10.4208,3.12397,0.852044,-3.03861
1134929,1275.8,110.965,-11.315,3.12216,0.906402,-3.04096
1134978,1280.98,110.246,-9.9978,3.11898,0.960757,-3.04371
1135027,1286.15,109.599,-10.4418,3.11446,1.01509,-3.04794
1135081,1291.8,108.862,-7.72785,3.10787,1.07441,-3.05369
1135130,1296.87,108.307,-10.141,3.09991,1.12919,-3.06151
1135179,1301.94,107.65,-8.82848,3.08811,1.18341,-3.07279
1135228,1306.98,107.061,-10.1958,3.07429,1.23708,-3.08756
1135281,1312.42,106.369,-9.57515,3.05223,1.29608,-3.11011
1135331,1317.51,105.742,-8.34174,3.02382,1.35062,-3.13941
1135380,1322.49,105.202,-7.82016,2.9779,1.40427,3.09651
1135433,1327.87,104.656,-10.5264,2.88304,1.4611,3.00025
1135482,1332.79,104.005,-9.32145,2.64632,1.51092,2.76226
1135531,1337.69,103.421,-10.7816,1.58196,1.54239,1.69568
1135581,1342.68,102.763,-9.40067,0.479774,1.51031,0.592731
1135685,1352.95,101.535,-9.63235,0.163067,1.40382,0.2734
1135734,1357.46,100.747,-8.36224,0.122561,1.35151,0.231641
1135783,1362.03,100.091,-8.87589,0.0980517,1.29946,0.205879
1135836,1367.02,99.4126,-12.2448,0.0818146,1.24194,0.188335
1135886,1371.74,98.6328,-10.1851,0.0722793,1.18707,0.177631
1135935,1376.37,98.0006,-8.06351,0.0655145,1.13426,0.169723
1135984,1381,97.4939,-7.87343,0.0616576,1.0809,0.164318
1136037,1386,96.9718,-11.7169,0.0597031,1.0226,0.161458
1136086,1390.61,96.3079,-9.60438,0.0573672,0.968691,0.159259
1136135,1395.18,95.7436,-9.02032,0.0565133,0.914752,0.158203
1136184,1399.74,95.2141,-8.26797,0.0564163,0.861274,0.158078
1136238,1404.74,94.6765,-10.5728,0.0557538,0.802372,0.157182
1136287,1409.22,94.0596,-10.3828,0.055273,0.74941,0.156496
1136337,1413.78,93.4473,-9.23156,0.0543654,0.695368,0.15588
1136390,1418.59,92.8676,-10.5688,0.0540081,0.638084,0.155302
1136439,1423,92.2607,-10.9317,0.0537256,0.585121,0.154811
1136489,1427.48,91.6318,-9.99795,0.0539861,0.531577,0.154359
1136538,1431.85,91.0665,-9.71505,0.0542317,0.478125,0.153854
1136603,1437.61,90.3423,-10.4722,0.0552655,0.408529,0.153233
1136652,1441.85,89.709,-9.77205,0.0560455,0.355568,0.152697
1136701,1446.08,89.1227,-9.91712,0.0570163,0.303067,0.152669
1136750,1450.31,88.545,-9.04974,0.0579663,0.250078,0.152559
1136802,1454.78,87.9956,-9.83424,0.059085,0.193816,0.152916
1136851,1458.99,87.4459,-9.97589,0.0601932,0.140769,0.153686
1136900,1463.18,86.9014,-9.61617,0.0612501,0.0872325,0.154361
1136953,1467.68,86.3308,-9.92341,0.0618197,0.0293272,0.155042
1137002,1471.8,85.7763,-10.0382,0.0623115,-0.0237216,0.155671
1137051,1475.91,85.2254,-9.20706,0.062749,-0.0777786,0.156706
1137100,1480,84.7209,-11.1029,0.0630782,-0.131378,0.158246
1137153,1484.39,84.0726,-10.6362,0.0633379,-0.188823,0.159941
1137202,1488.39,83.4811,-10.4815,0.0636059,-0.242392,0.160978
1137251,1492.38,82.9022,-11.0675,0.0643136,-0.295962,0.162001
1137304,1496.65,82.2422,-9.82063,0.0650164,-0.353375,0.16312
1137353,1500.56,81.6875,-9.27687,0.0661391,-0.407435,0.164055
1137402,1504.46,81.1717,-9.46034,0.0674637,-0.461463,0.164401
1137451,1508.35,80.6516,-10.5516,0.0685539,-0.51497,0.164166
1137504,1512.52,80.0335,-10.5345,0.0703071,-0.572314,0.163851
1137553,1516.34,79.4549,-10.8623,0.0720343,-0.62582,0.163395
1137602,1520.13,78.8569,-10.4733,0.0743371,-0.678836,0.16283
1137651,1523.89,78.282,-9.24056,0.0767864,-0.731852,0.162076
1137704,1527.95,77.7355,-9.8448,0.0785406,-0.788705,0.161837
1137753,1531.65,77.1906,-8.96647,0.0798286,-0.842283,0.162087
1137802,1535.34,76.6918,-9.39508,0.0805827,-0.895901,0.163024
1137856,1539.37,76.1208,-9.6821,0.0802538,-0.954987,0.164112
1137905,1542.99,75.5746,-8.98703,0.0793143,-1.00861,0.165241
1138377,1576.6,70.6908,-9.38139,0.0448714,-1.50017,0.185942
1138756,1588.17,58.0655,-10.372,-3.02405,-1.24635,-3.02749
1138809,1589.62,56.392,-10.2596,-3.02458,-1.19036,-3.02693
1138858,1591.6,55.3573,-9.49857,-3.02541,-1.13858,-3.02656
1138907,1594.07,54.7305,-9.44135,-3.02528,-1.08627,-3.02724
1138956,1596.9,54.3766,-9.86359,-3.02514,-1.03444,-3.02796
1139009,1600.23,54.1777,-9.17776,-3.02488,-0.977791,-3.02952
1139057,1603.43,54.157,-9.53948,-3.02583,-0.927018,-3.03013
1139106,1606.81,54.2071,-10.5963,-3.02619,-0.875132,-3.03155
1139159,1610.56,54.2628,-10.0615,-3.02719,-0.819013,-3.03304
1139208,1614.07,54.3665,-9.87127,-3.02859,-0.767615,-3.03452
1139257,1617.61,54.4999,-10.4425,-3.03002,-0.716219,-3.03602
1139307,1621.22,54.6044,-9.41293,-3.03242,-0.663831,-3.03697
1139360,1625.03,54.7489,-9.54278,-3.03492,-0.608304,-3.0381
1139409,1628.53,54.8557,-10.7009,-3.03799,-0.557506,-3.03876
1139458,1632,54.8843,-9.67553,-3.04103,-0.506224,-3.03952
1139511,1635.72,54.9451,-10.1591,-3.04453,-0.451339,-3.03999
1139560,1639.12,54.9467,-9.72271,-3.0479,-0.40113,-3.04012
1139609,1642.47,54.9394,-10.4082,-3.05122,-0.350922,-3.04043
1139658,1645.8,54.8801,-9.58353,-3.05693,-0.300716,-3.04097
1139711,1649.36,54.8332,-9.16398,-3.06093,-0.246944,-3.04186
1139760,1652.6,54.7777,-9.66497,-3.06462,-0.197232,-3.04288
1139809,1655.81,54.6754,-9.76254,-3.06785,-0.147524,-3.04405
1139858,1658.98,54.5485,-9.84895,-3.07117,-0.0983435,-3.04493
1139911,1662.38,54.3873,-9.80548,-3.07477,-0.0440608,-3.04651
1139960,1665.46,54.2014,-10.1954,-3.07817,0.00612157,-3.04815
1140009,1668.49,53.974,-10.1159,-3.08215,0.0562975,-3.04997
1140063,1671.79,53.7025,-10.2345,-3.0866,0.113706,-3.05156
1140112,1674.71,53.4114,-10.5676,-3.09126,0.163838,-3.05335
1140161,1677.58,53.0813,-9.80737,-3.09654,0.213961,-3.0554
1140210,1680.42,52.7746,-9.53062,-3.10188,0.264541,-3.05723
1140262,1683.38,52.4374,-9.88494,-3.10774,0.317685,-3.05954
1140311,1686.12,52.076,-10.2902,-3.11398,0.367262,-3.06208
1140360,1688.82,51.6846,-9.93238,-3.1205,0.416822,-3.06502
1140413,1691.7,51.267,-10.2737,-3.1279,0.469875,-3.06869
1140462,1694.31,50.8395,-9.85297,-3.13563,0.519391,-3.07259
1140511,1696.88,50.417,-9.88223,3.13936,0.568878,-3.07706
1140560,1699.41,49.9859,-10.4041,3.13061,0.618331,-3.08218
1140613,1702.1,49.4726,-9.8328,3.11947,0.671232,-3.08924
1140662,1704.54,49.0089,-9.57361,3.10829,0.720081,-3.09675
1140711,1706.94,48.5502,-9.79287,3.09654,0.76888,-3.10469
1140760,1709.31,48.0707,-9.92582,3.0836,0.818093,-3.1139
1140813,1711.83,47.5377,-9.43506,3.06865,0.870725,-3.12469
1140862,1714.12,47.0526,-9.61954,3.05263,0.918789,-3.13642
1140911,1716.38,46.5548,-9.8016,3.03523,0.966773,3.13374
1140964,1718.77,45.9947,-9.77924,3.01357,1.0185,3.11674
1141013,1720.94,45.466,-10.041,2.99015,1.06612,3.09757
1141062,1723.07,44.9131,-9.76348,2.9634,1.11356,3.07515
1141111,1725.17,44.3759,-9.21506,2.93112,1.16068,3.04714
1141165,1727.46,43.8138,-10.0565,2.88637,1.21155,3.00761
1141214,1729.49,43.2463,-9.90006,2.8347,1.25701,2.96016
1141263,1731.48,42.6808,-9.52978,2.76829,1.30164,2.89799
1141316,1733.59,42.0775,-9.73754,2.6681,1.34816,2.80238
1141365,1735.51,41.5077,-9.81293,2.53194,1.38838,2.67092
1141415,1737.42,40.9157,-9.72305,2.32203,1.42426,2.46528
1141464,1739.27,40.3337,-9.12404,2.00979,1.44985,2.15771
1141531,1741.73,39.5726,-9.99205,1.43736,1.45749,1.59166
1141579,1743.43,38.961,-9.36613,1.06739,1.44067,1.22674
1141628,1745.15,38.3771,-9.57612,0.803176,1.41034,0.967204
1141681,1746.98,37.7372,-9.94963,0.619542,1.36986,0.789201
1141730,1748.63,37.1225,-10.079,0.504665,1.32881,0.679514
1141779,1750.26,36.5041,-9.68559,0.421749,1.28517,0.602276
1141828,1751.86,35.9095,-9.34194,0.359344,1.24084,0.545549
1141881,1753.57,35.2881,-9.06898,0.306693,1.19258,0.499036
1141930,1755.11,34.7196,-10.0087,0.268012,1.14733,0.466081
1141979,1756.62,34.1032,-9.07771,0.235203,1.10178,0.438952
1142028,1758.11,33.5409,-8.79364,0.207391,1.05648,0.416303
1142081,1759.71,32.9598,-9.18033,0.180925,1.00729,0.395353
1142130,1761.16,32.4026,-9.05399,0.158345,0.961742,0.377662
1142179,1762.58,31.8517,-9.66661,0.138545,0.916486,0.362847
1142232,1764.11,31.2353,-9.28023,0.119395,0.86743,0.348461
1142281,1765.49,30.6828,-9.53419,0.102998,0.821988,0.336366
1142331,1766.86,30.1058,-9.7044,0.0878208,0.775544,0.324956
1142380,1768.19,29.535,-9.41386,0.0742989,0.730409,0.315216
1142433,1769.59,28.9322,-9.67721,0.0604434,0.681526,0.3053
1142482,1770.87,28.3653,-9.56631,0.0486293,0.636245,0.29721
1142531,1772.12,27.813,-9.59872,0.0381225,0.591385,0.29003
1142584,1773.46,27.2193,-9.70793,0.0271824,0.542817,0.282492
1142633,1774.67,26.6627,-9.38069,0.0177064,0.497855,0.276247
1142683,1775.86,26.1068,-9.50086,0.00832963,0.452432,0.26996
1142732,1777.01,25.5539,-9.71747,0.000115147,0.40787,0.264363
1142785,1778.21,24.9437,-9.61048,-0.00882989,0.359627,0.258876
1142834,1779.29,24.3856,-9.40578,-0.0164027,0.31498,0.253762
1142884,1780.38,23.829,-9.44629,-0.0242784,0.269386,0.248987
1142937,1781.5,23.2384,-9.57845,-0.0324171,0.221005,0.243844
1142986,1782.5,22.6819,-9.6795,-0.0396465,0.17624,0.23949
1143035,1783.48,22.1238,-9.55224,-0.0466292,0.131445,0.235492
1143083,1784.41,21.5833,-9.6552,-0.0532619,0.0875395,0.231899
1143136,1785.41,20.9819,-9.66216,-0.0603807,0.0390359,0.228282
1143185,1786.32,20.4299,-9.52182,-0.0663193,-0.00586017,0.224749
1143234,1787.19,19.8846,-9.44281,-0.0721066,-0.0507762,0.221477
1143287,1788.12,19.3039,-9.77855,-0.0781823,-0.0994173,0.217689
1143336,1788.95,18.7524,-9.73138,-0.0836662,-0.144408,0.214433
1143385,1789.76,18.208,-9.87004,-0.08896,-0.189458,0.210906
1143434,1790.53,17.648,-9.55479,-0.0941421,-0.234525,0.20759
1143486,1791.33,17.08,-9.82069,-0.0993892,-0.281901,0.203703
1143535,1792.05,16.5253,-9.96443,-0.104073,-0.326611,0.199712
1143584,1792.74,15.9615,-9.69291,-0.10797,-0.37139,0.195346
1143637,1793.45,15.3657,-9.98787,-0.112004,-0.419312,0.190683
1143686,1794.08,14.7987,-9.90523,-0.114865,-0.463689,0.185913
1143735,1794.69,14.2388,-10.0373,-0.117552,-0.508077,0.181175
1143784,1795.27,13.6759,-9.98218,-0.119244,-0.552045,0.1758
1143837,1795.88,13.0784,-10.1811,-0.120269,-0.599608,0.169898
1143886,1796.43,12.5191,-10.0412,-0.120084,-0.643644,0.163692
1143935,1796.94,11.9635,-10.0713,-0.11904,-0.687676,0.157243
1143984,1797.43,11.4114,-9.87724,-0.117526,-0.731216,0.150408
1144037,1797.93,10.8283,-10.0865,-0.114355,-0.778883,0.141915
1144087,1798.38,10.2704,-10.0384,-0.110683,-0.823776,0.134022
1144136,1798.8,9.72894,-10.0054,-0.106311,-0.867263,0.125562
1144189,1799.23,9.14447,-9.80292,-0.0995394,-0.914264,0.115492
1144238,1799.59,8.61141,-10.1138,-0.0927726,-0.957144,0.105871
1144287,1799.92,8.06555,-10.2639,-0.0842914,-0.99998,0.0950613
1144352,1800.33,7.3312,-9.98682,-0.0699325,-1.0567,0.0783025
1144404,1800.62,6.75786,-9.66936,-0.0562593,-1.10195,0.0633873
1144453,1800.88,6.24049,-10.4349,-0.040138,-1.14448,0.0465955
1144502,1801.11,5.68823,-10.3344,-0.0216351,-1.18687,0.0275337
1144555,1801.34,5.10075,-9.80465,0.00416105,-1.23253,0.00166575
1144604,1801.53,4.58898,-9.95935,0.0339283,-1.2745,-0.0275958
1144653,1801.7,4.06751,-9.84812,0.0736974,-1.31564,-0.0663712
1144702,1801.85,3.55959,-9.91734,0.128346,-1.35625,-0.120031
1144755,1801.99,3.01284,-10.0627,0.213489,-1.39923,-0.203525
1144804,1802.1,2.49953,-10.0642,0.339499,-1.43722,-0.328015
1144852,1802.18,1.99872,-10.329,0.55491,-1.47131,-0.541473
1144905,1802.25,1.43367,-10.1802,1.00432,-1.49843,-0.988725
1144954,1802.28,0.917288,-9.87732,1.61417,-1.50228,-1.59656
1145003,1802.14,0.310255,-2.55676,2.04907,-1.49244,-2.06354
1145052,1796.06,-4.05045,-22.4025,2.38052,-1.46251,-2.39932
1145105,1792.56,-7.49271,-7.55767,2.5725,-1.42662,-2.59013
1145155,1790.31,-9.16664,-8.41653,2.7002,-1.38488,-2.71652
1145204,1788.87,-10.2622,-13.3304,2.78229,-1.3445,-2.79737
1145253,1787.99,-11.1692,-8.59978,2.84358,-1.30492,-2.85701
1145306,1787.48,-11.5542,-9.05309,2.89695,-1.26018,-2.91045
1145355,1787.36,-11.6839,-10.9082,2.93798,-1.21806,-2.95228
1145404,1787.47,-11.7308,-10.3807,2.97239,-1.17668,-2.9887
1145457,1787.78,-11.625,-10.1711,3.00692,-1.13134,-3.02703
1145506,1788.19,-11.4326,-10.0939,3.03505,-1.08971,-3.06061
1145556,1788.69,-11.186,-10.2927,3.05969,-1.04803,-3.09384
1145605,1789.23,-10.9251,-10.373,3.0806,-1.00744,-3.12513
1145658,1789.85,-10.636,-10.6947,3.09802,-0.963228,3.12699
1145707,1790.44,-10.3754,-9.95385,3.11215,-0.924122,3.09866
1145756,1791.05,-10.0802,-10.4755,3.12434,-0.886805,3.06946
1145809,1791.71,-9.79368,-9.97293,3.1373,-0.847829,3.03441
1145857,1792.31,-9.51984,-10.006,-3.13347,-0.814662,2.99747
1145906,1792.93,-9.24635,-8.97665,-3.1214,-0.781399,2.95393
1145955,1793.57,-8.92195,-9.32578,-3.11085,-0.749617,2.90476
1146008,1794.28,-8.58353,-9.65393,-3.10552,-0.718467,2.84619
1146057,1794.99,-8.26486,-8.9524,-3.10633,-0.692324,2.78626
1146106,1795.76,-7.87884,-10.5444,-3.116,-0.668678,2.71911
1146159,1796.7,-7.48211,-7.22278,-3.13126,-0.645172,2.63136
1146208,1797.65,-6.91995,-11.9572,3.12097,-0.624461,2.54734
1146257,1798.71,-6.52327,-18.5905,3.06662,-0.592407,2.48994
1146306,1799.84,-6.41096,-11.1128,2.96082,-0.542692,2.4619
1146360,1801.17,-5.83426,-11.3088,2.80363,-0.493769,2.43991
1146409,1802.41,-5.31975,-12.1732,2.63976,-0.452649,2.40489
1146458,1803.63,-4.87888,-16.0285,2.463,-0.426642,2.35775
1146507,1804.74,-4.713,-16.8122,2.27825,-0.427973,2.3017
1146560,1805.8,-4.67849,-17.5072,2.07678,-0.45102,2.23942
1146609,1806.56,-4.8296,-17.13,1.8871,-0.490326,2.19694
1146658,1807.06,-5.14286,-20.71,1.70542,-0.536992,2.16513
1146711,1807.32,-5.85004,-6.80749,1.53263,-0.578812,2.15403
1146760,1807.34,-5.96623,-19.7168,1.36311,-0.616222,2.17807
1146810,1807.15,-6.86166,-18.59,1.19829,-0.654456,2.20518
1146859,1806.7,-7.83377,-15.4649,1.04214,-0.693125,2.22495
1146912,1806.03,-8.81412,-14.5942,0.877615,-0.742369,2.23306
1146961,1805.33,-9.7068,-10.3772,0.749279,-0.814517,2.19578
1147010,1804.7,-10.3157,-16.7466,0.715163,-0.956929,2.02516
1147079,1804.02,-11.4171,-14.9275,1.02059,-1.09348,1.37445
1147128,1803.68,-11.989,-18.9147,1.42017,-1.02451,0.790739
1147177,1803.28,-12.7676,-16.2239,1.75324,-0.84669,0.384187
1147226,1802.89,-13.3831,-6.08021,2.02804,-0.663045,0.115191
1147279,1802.51,-13.4701,-13.4373,2.29935,-0.506874,-0.139592
1147328,1801.89,-14.0939,0.365206,2.47497,-0.362788,-0.363306
1147377,1801.2,-14.0728,8.5765,2.56309,-0.202906,-0.567154
1147430,1800.61,-13.5166,-6.95564,2.5802,-0.0237331,-0.777713
1147479,1799.94,-13.858,-14.2289,2.5496,0.144901,-0.966271
1147528,1799.18,-14.6034,-15.9075,2.50449,0.123297,-1.04342
1147577,1798.28,-15.4958,-14.8854,2.4527,-0.119758,-0.96763
1147630,1797.15,-16.4861,0.814076,2.40008,-0.401,-0.887602
1147679,1796.03,-16.6627,4.61301,2.37895,-0.672345,-0.810588
1147728,1794.86,-16.6874,-7.65001,2.39197,-0.942652,-0.712304
1147781,1793.45,-17.4462,-8.58191,2.31089,-1.18577,-0.442905
1147830,1792.05,-18.2368,-12.2694,1.81042,-1.29615,0.248175
1147879,1790.56,-19.2484,-12.5306,1.22901,-1.18345,0.99587
1147928,1789.04,-20.2473,-10.3451,1.01467,-0.941406,1.31399
1147982,1787.4,-21.181,-12.2274,0.881063,-0.639228,1.47416
1148031,1785.94,-22.0592,-12.6943,0.747146,-0.375126,1.57152
1148080,1784.78,-22.7268,-21.6524,0.603179,-0.134027,1.66246
1148129,1783.88,-23.6241,-23.7281,0.470164,0.0829784,1.77369
1148182,1782.78,-24.7516,-24.9749,0.395755,0.2951,1.94552
1148232,1781.53,-25.9872,-18.5438,0.423967,0.488605,2.13969
1148281,1780.33,-26.8266,3.34196,0.552837,0.668242,2.35779
1148334,1779.14,-26.4927,3.63,0.773207,0.852228,2.62562
1148384,1778.03,-26.1672,7.40932,1.0691,1.00569,2.95554
1148433,1776.88,-25.7158,1.99496,1.48737,1.10453,-2.8674
1148482,1775.83,-25.475,-4.40979,1.97443,1.10616,-2.31097
1148535,1774.82,-25.4643,-15.3575,2.33938,0.987625,-1.829
1148584,1773.87,-26,-20.6876,2.48172,0.811,-1.55631
1148633,1772.77,-26.876,-15.8749,2.5116,0.603727,-1.38489
1148686,1771.49,-27.604,-18.1021,2.49991,0.358746,-1.25901
1148735,1770.19,-28.4335,-12.7452,2.47176,0.132484,-1.1699
1148784,1768.82,-29.0342,-6.10141,2.43898,-0.0706785,-1.10521
1148833,1767.39,-29.3317,-3.65869,2.41397,-0.260352,-1.05179
1148898,1765.4,-29.6204,-0.296017,2.38591,-0.511082,-0.96413
1148947,1763.89,-29.6753,-0.554532,2.34985,-0.699931,-0.875379
1148996,1762.34,-29.7738,-0.462199,2.28464,-0.886295,-0.742591
1149045,1760.78,-29.8644,-4.90539,2.13231,-1.07112,-0.524194
1149098,1758.98,-30.2728,-9.50836,1.74128,-1.22402,-0.052224
1149147,1757.26,-30.8959,-10.0475,1.14262,-1.23725,0.626211
1149196,1755.47,-31.5708,-12.0808,0.712827,-1.11821,1.13043
1149249,1753.51,-32.3943,-12.1404,0.505436,-0.925878,1.4127
1149298,1751.72,-33.1221,-13.826,0.420931,-0.733508,1.56823
1149347,1749.93,-33.9025,-12.5221,0.388673,-0.538638,1.67966
1149396,1748.17,-34.5764,-9.30897,0.394275,-0.346325,1.77022
1149449,1746.26,-35.1116,-9.9781,0.42149,-0.145227,1.86256
1149498,1744.54,-35.5948,-11.8089,0.458373,0.0340395,1.95661
1149547,1742.85,-36.1259,-9.63123,0.517751,0.198952,2.06237
1149600,1741.13,-36.4916,-9.22643,0.62394,0.372917,2.17723
1149649,1739.72,-36.6732,-7.41407,0.753466,0.529287,2.29747
1149699,1738.41,-36.6709,-7.97483,0.910937,0.678086,2.43262
1149748,1737.37,-36.5341,-11.3265,1.09009,0.807313,2.58265
1149821,1736.06,-36.4029,-16.2035,1.38285,0.969168,2.83914
1149870,1735.16,-36.5716,-16.3348,1.6152,1.04592,3.04118
1149919,1734.13,-36.822,-19.05,1.83078,1.10164,-3.05991
1149968,1733.04,-37.249,-25.2348,1.96779,1.15454,-2.96472
1150021,1731.78,-38.0669,-26.7045,2.0377,1.21385,-2.94017
1150070,1730.54,-38.9131,-25.5491,1.99588,1.27212,-3.02569
1150119,1729.25,-39.7168,-26.4184,1.71629,1.32839,2.93158
1150172,1727.81,-40.6299,-17.6539,1.12912,1.32189,2.29417
1150221,1726.46,-41.0314,-14.8127,0.720718,1.21916,1.84683
1150270,1725.15,-41.2606,-8.62045,0.525391,1.07432,1.62733
1150319,1723.89,-41.147,-3.59042,0.432436,0.93217,1.52203
1150372,1722.55,-40.749,-1.29012,0.369598,0.806021,1.47039
1150421,1721.36,-40.2518,-0.747139,0.328376,0.727745,1.4569
1150470,1720.21,-39.7156,0.550725,0.293331,0.689257,1.46704
1150523,1719.01,-39.0562,3.50592,0.262177,0.699607,1.50529
1150572,1717.95,-38.2952,-0.328815,0.238232,0.765723,1.57488
1150621,1716.9,-37.7401,-4.20194,0.226748,0.832116,1.66949
1150670,1715.8,-37.4206,-5.28319,0.229191,0.880353,1.78543
1150723,1714.53,-37.2002,-7.81316,0.242961,0.892119,1.93366
1150772,1713.31,-37.1538,-4.32754,0.257148,0.865861,2.07595
1150821,1712,-37.0118,-7.68213,0.255872,0.805897,2.20936
1150875,1710.43,-37.1193,-7.38549,0.232058,0.705428,2.34347
1150924,1708.99,-37.2147,-5.23904,0.185374,0.594336,2.45375
1150973,1707.52,-37.2189,-4.38712,0.114946,0.475824,2.55914
1151022,1706,-37.2217,-6.32072,0.019941,0.359884,2.65276
1151075,1704.27,-37.3827,-7.16177,-0.098248,0.241922,2.74821
1151124,1702.62,-37.5981,-8.46567,-0.214875,0.142206,2.82916
1151173,1700.94,-37.8914,-11.1576,-0.333558,0.0518704,2.90717
1151222,1699.23,-38.3315,-14.0518,-0.449213,-0.0307962,2.98618
1151275,1697.41,-38.9144,-15.5569,-0.571513,-0.112843,3.07468
1151324,1695.79,-39.4605,-16.9342,-0.676039,-0.183786,-3.11431
1151373,1694.24,-40.015,-20.5643,-0.780894,-0.248917,-3.00926
1151426,1692.58,-40.7597,-20.4261,-0.908151,-0.315291,-2.89096
1151475,1691.11,-41.3824,-21.1049,-1.03476,-0.379145,-2.77234
1151524,1689.65,-41.9984,-19.4648,-1.16284,-0.438392,-2.64254
1151573,1688.12,-42.5687,-18.5803,-1.28833,-0.480887,-2.50124
1151626,1686.38,-43.1832,-15.5626,-1.41629,-0.507141,-2.34228
1151675,1684.7,-43.6241,-14.8827,-1.51633,-0.512484,-2.20872
1151724,1682.98,-44.0512,-12.8526,-1.59504,-0.49976,-2.09597
1151777,1681.04,-44.4495,-10.6655,-1.65069,-0.470411,-2.00057
1151826,1679.17,-44.7466,-12.6174,-1.674,-0.43092,-1.93357
1151875,1677.23,-45.1768,-12.2654,-1.6729,-0.384219,-1.89804
1151924,1675.26,-45.6025,-11.0872,-1.64826,-0.3323,-1.88308
1151977,1673.11,-45.9892,-12.1668,-1.59714,-0.266403,-1.8911
1152026,1671.14,-46.3798,-13.727,-1.53607,-0.200718,-1.90944
1152075,1669.2,-46.8095,-14.5518,-1.46438,-0.130565,-1.93724
1152128,1667.16,-47.2639,-14.1908,-1.38008,-0.0515099,-1.96136
1152177,1665.34,-47.602,-17.812,-1.29419,0.0208682,-1.97381
1152227,1663.56,-48.059,-15.0537,-1.20561,0.0923872,-1.98004
1152276,1661.87,-48.3194,-16.421,-1.1195,0.156572,-1.97678
1152329,1660.13,-48.6091,-13.118,-1.02986,0.216018,-1.9618
1152378,1658.61,-48.6426,-12.3964,-0.951826,0.263185,-1.93843
1152428,1657.09,-48.6142,-13.0854,-0.886763,0.297285,-1.91464
1152477,1655.68,-48.567,-10.007,-0.841206,0.318892,-1.89528
1152550,1653.67,-48.2262,-7.63192,-0.823019,0.328896,-1.87942
1152599,1652.37,-47.8531,-10.3928,-0.837866,0.328659,-1.87684
1152648,1651.1,-47.6057,-12.4271,-0.873872,0.324687,-1.87911
1152701,1649.77,-47.4238,-11.9434,-0.936932,0.317301,-1.8909
1152750,1648.59,-47.2049,-13.7851,-1.0128,0.305185,-1.90513
1152799,1647.41,-47.0802,-10.7837,-1.09829,0.292872,-1.91772
1152848,1646.27,-46.7903,-12.4505,-1.19152,0.278887,-1.92881
1152901,1645.07,-46.5459,-14.4027,-1.29234,0.259851,-1.93555
1152950,1644.02,-46.3845,-14.0552,-1.39046,0.239421,-1.93633
1152999,1643.01,-46.1879,-15.4772,-1.48773,0.215847,-1.93345
1153052,1641.91,-46.054,-12.4622,-1.58403,0.185978,-1.91182
1153101,1640.92,-45.7764,-10.9466,-1.65855,0.162987,-1.88127
1153150,1639.92,-45.4405,-12.2328,-1.7309,0.138315,-1.84124
1153199,1638.91,-45.1817,-10.8515,-1.79047,0.119167,-1.79781
1153253,1637.78,-44.8497,-10.7875,-1.82579,0.111183,-1.72936
1153302,1636.73,-44.5677,-12.3417,-1.84878,0.109221,-1.67109
1153351,1635.66,-44.3886,-9.55587,-1.85266,0.117672,-1.60583
1153404,1634.5,-44.061,-10.1638,-1.84579,0.134207,-1.53007
1153453,1633.44,-43.7877,-13.3337,-1.8313,0.151808,-1.45592
1153503,1632.3,-43.7087,-10.1415,-1.80989,0.172954,-1.36994
1153552,1631.15,-43.5081,-8.56215,-1.78426,0.197812,-1.2868
1153605,1629.85,-43.2545,-8.7199,-1.74557,0.228071,-1.19405
1153654,1628.62,-43.0592,-9.24514,-1.71519,0.255603,-1.11635
1153703,1627.32,-42.9409,-11.0322,-1.68057,0.285178,-1.03267
1153752,1625.95,-42.9626,-9.98878,-1.64802,0.314817,-0.949088
1153806,1624.38,-42.9685,-14.1518,-1.61476,0.352503,-0.867393
1153855,1622.94,-43.1888,-14.8745,-1.59081,0.387446,-0.797114
1153904,1621.47,-43.4562,-11.1589,-1.5692,0.423733,-0.736174
1153956,1619.89,-43.5582,-10.7661,-1.55728,0.463911,-0.680584
1154005,1618.37,-43.6451,-11.0791,-1.5402,0.502008,-0.623761
1154054,1616.84,-43.7589,-10.3702,-1.52984,0.540128,-0.572456
1154103,1615.31,-43.8333,-9.09781,-1.51984,0.576459,-0.523078
1154156,1613.65,-43.8462,-9.34274,-1.5088,0.612514,-0.465531
1154205,1612.11,-43.8736,-11.0456,-1.49971,0.641882,-0.40915
1154254,1610.56,-43.9879,-11.8367,-1.49463,0.667793,-0.356578
1154308,1608.83,-44.1652,-11.086,-1.49648,0.694282,-0.300358
1154357,1607.27,-44.2801,-9.6911,-1.49036,0.714589,-0.244772
1154406,1605.69,-44.3365,-12.0797,-1.48168,0.732753,-0.190225
1154455,1604.11,-44.505,-10.8174,-1.4799,0.752114,-0.148466
1154508,1602.4,-44.621,-12.1908,-1.47532,0.773873,-0.108098
1154558,1600.78,-44.7964,-6.21576,-1.47725,0.795307,-0.0832293
1154607,1599.18,-44.6803,-12.2192,-1.48454,0.81559,-0.0614185
1154656,1597.57,-44.8629,-11.7734,-1.48469,0.835148,-0.0342769
1154709,1595.84,-45.028,-10.8415,-1.47496,0.854575,-0.00355002
1154758,1594.23,-45.1349,-10.3718,-1.4655,0.871867,0.0256513
1154807,1592.62,-45.2193,-11.424,-1.44896,0.887228,0.0585687
1154859,1590.92,-45.3461,-11.9059,-1.41453,0.893586,0.11757
1154908,1589.34,-45.4744,-12.6375,-1.35152,0.891317,0.203516
1154958,1587.73,-45.6358,-9.32725,-1.29843,0.883267,0.283575
1155007,1586.14,-45.6376,-12.1884,-1.25487,0.870847,0.352955
1155060,1584.43,-45.7777,-11.9854,-1.22594,0.856961,0.407734
1155109,1582.89,-45.8646,-13.4382,-1.20348,0.841787,0.454596
1155158,1581.36,-46.0111,-12.2882,-1.17857,0.821607,0.498244
1155233,1579.07,-46.1126,-13.4157,-1.16495,0.791834,0.538914
1155282,1577.64,-46.1849,-14.8339,-1.17107,0.779753,0.548963
1155331,1576.2,-46.3274,-14.201,-1.17518,0.770726,0.557792
1155380,1574.76,-46.4312,-14.1389,-1.18338,0.76422,0.563635
1155433,1573.2,-46.5414,-14.4239,-1.19992,0.758119,0.565006
1155481,1571.8,-46.6419,-11.7869,-1.18396,0.749961,0.600239
1155530,1570.39,-46.6046,-13.2865,-1.14742,0.734699,0.663702
1155583,1568.87,-46.6322,-11.4941,-1.09407,0.708399,0.758863
1155632,1567.52,-46.5355,-15.661,-1.02673,0.667226,0.865621
1155681,1566.22,-46.6073,-16.3727,-0.953053,0.612521,0.97495
1155730,1564.97,-46.6806,-16.448,-0.88499,0.539924,1.08443
1155783,1563.7,-46.7033,-20.7717,-0.81546,0.452492,1.19022
1155832,1562.64,-46.8438,-16.8496,-0.759708,0.378539,1.27362
1155881,1561.74,-46.6857,-13.1392,-0.708029,0.326022,1.33389
1155930,1561.01,-46.242,-19.129,-0.667333,0.295871,1.37722
1155983,1560.34,-46.0005,-14.7175,-0.628725,0.293559,1.40614
1156032,1559.79,-45.5244,-21.7553,-0.599401,0.320205,1.41724
1156081,1559.26,-45.3864,-19.4084,-0.577527,0.379027,1.41244
1156134,1558.67,-45.1379,-20.9031,-0.552225,0.467432,1.40051
1156183,1558,-45.0714,-24.9093,-0.517947,0.53581,1.39843
1156233,1557.13,-45.3335,-19.8507,-0.470455,0.575316,1.40412
1156282,1556.13,-45.4434,-19.3206,-0.417711,0.587401,1.41541
1156335,1554.92,-45.6157,-19.7078,-0.354103,0.566341,1.43585
1156384,1553.71,-45.8493,-17.3295,-0.299272,0.54625,1.44692
1156433,1552.42,-46.0235,-18.5513,-0.253519,0.536156,1.44729
1156486,1550.97,-46.298,-14.7157,-0.213062,0.537928,1.43729
1156535,1549.6,-46.3838,-19.4517,-0.186238,0.552111,1.41815
1156584,1548.21,-46.7108,-24.6153,-0.168536,0.573556,1.38889
1156633,1546.75,-47.318,-19.9585,-0.161272,0.605299,1.34908
1156686,1545.09,-47.7658,-19.0029,-0.173071,0.652339,1.2921
1156735,1543.51,-48.1512,-17.356,-0.19156,0.686357,1.22758
1156784,1541.89,-48.4796,-19.1887,-0.221042,0.709897,1.15582
1156833,1540.24,-48.8997,-20.247,-0.26115,0.739735,1.07393
1156885,1538.48,-49.3887,-17.8664,-0.318838,0.776861,0.977244
1156934,1536.82,-49.7201,-14.7371,-0.377409,0.813718,0.882233
1156983,1535.16,-49.8875,-16.0723,-0.450716,0.858409,0.779542
1157036,1533.36,-50.1374,-15.6929,-0.548401,0.901834,0.654284
1157085,1531.71,-50.3381,-11.2583,-0.650133,0.933237,0.531184
1157134,1530.05,-50.3187,-10.6935,-0.760306,0.953706,0.407266
1157183,1528.43,-50.2462,-11.1053,-0.865013,0.961674,0.296055
1157236,1526.72,-50.1567,-13.7593,-0.978054,0.958747,0.186582
1157286,1525.16,-50.1769,-10.3734,-1.07631,0.951706,0.0962605
1157335,1523.67,-50.0037,-12.8905,-1.17752,0.947676,0.0127963
1157388,1522.12,-49.9084,-10.6825,-1.2652,0.943897,-0.05414
1157437,1520.75,-49.6813,-9.23018,-1.3389,0.945433,-0.104582
1157486,1519.43,-49.3479,-8.78933,-1.39672,0.948988,-0.134165
1157535,1518.17,-48.9652,-6.08836,-1.4435,0.953703,-0.148296
1157588,1516.9,-48.362,-6.02218,-1.48286,0.963598,-0.14458
1157637,1515.82,-47.7551,-6.92317,-1.50882,0.974479,-0.123177
1157686,1514.8,-47.1718,-7.82076,-1.52514,0.986144,-0.086804
1157736,1513.79,-46.6219,-6.25025,-1.52742,1.00179,-0.0304808
1157789,1512.72,-45.9726,-7.20693,-1.50616,1.01789,0.0559311
1157838,1511.73,-45.4408,-6.62173,-1.47727,1.03334,0.14642
1157887,1510.72,-44.9182,-9.98463,-1.44566,1.04819,0.24322
1157962,1509.09,-44.4473,-7.7008,-1.38059,1.06795,0.408977
1158011,1507.98,-44.0754,-7.08383,-1.31838,1.07619,0.537792
1158060,1506.78,-43.7469,-8.52386,-1.25045,1.07836,0.676061
1158109,1505.51,-43.5523,-10.0389,-1.19288,1.07917,0.804711
1158162,1504.05,-43.4861,-10.9187,-1.13262,1.07848,0.94096
1158211,1502.61,-43.5317,-9.29218,-1.07853,1.07861,1.06289
1158260,1501.07,-43.5706,-9.36348,-1.02837,1.08272,1.17802
1158313,1499.3,-43.6814,-11.8506,-0.972068,1.08519,1.29984
1158362,1497.65,-43.9136,-11.2131,-0.921859,1.08187,1.40821
1158411,1495.97,-44.1228,-13.1579,-0.872823,1.08117,1.50704
1158461,1494.24,-44.4363,-13.2751,-0.806155,1.07545,1.62975
1158514,1492.38,-44.7855,-11.9415,-0.682029,1.04152,1.80062
1158563,1490.66,-45.0296,-15.2181,-0.567259,0.992451,1.95501
1158612,1488.94,-45.4226,-16.6084,-0.463758,0.937877,2.0933
1158665,1487.1,-45.8992,-16.7971,-0.356796,0.881125,2.22937
1158714,1485.44,-46.2968,-21.677,-0.26151,0.839256,2.34207
1158763,1483.85,-46.8694,-18.6194,-0.15889,0.813674,2.45288
1158812,1482.35,-47.2083,-23.0532,-0.0455379,0.818516,2.57076
1158865,1480.85,-47.7122,-21.9916,0.109945,0.841258,2.72101
1158914,1479.53,-48.0683,-23.0305,0.290981,0.879516,2.88918
1158964,1478.23,-48.4307,-27.1566,0.515673,0.906389,3.09967
1159013,1476.95,-48.9804,-22.7524,0.751675,0.894446,-2.98446
1159066,1475.48,-49.3796,-19.6464,0.99079,0.858004,-2.78866
1159115,1474.05,-49.6388,-16.3403,1.16717,0.793873,-2.6701
1159164,1472.54,-49.7874,-15.5518,1.30734,0.7257,-2.58469
1159217,1470.84,-49.9465,-11.6565,1.42712,0.651636,-2.52711
1159266,1469.23,-49.9207,-11.7159,1.51713,0.586566,-2.48599
1159315,1467.62,-49.9055,-9.5161,1.59421,0.526264,-2.45321
1159364,1466.01,-49.7853,-7.89932,1.65815,0.470196,-2.4199
1159417,1464.24,-49.5928,-7.20111,1.716,0.4117,-2.38618
1159466,1462.69,-49.3302,-6.64978,1.75837,0.362462,-2.35703
1159515,1461.2,-49.0066,-7.6089,1.79361,0.312173,-2.3379
1159568,1459.65,-48.6751,-6.64369,1.81751,0.262823,-2.32465
1159617,1458.28,-48.284,-5.68684,1.83219,0.219279,-2.31857
1159666,1456.98,-47.8201,-5.04098,1.84233,0.177987,-2.32178
1159715,1455.74,-47.2992,-4.80417,1.84278,0.13842,-2.3314
1159768,1454.49,-46.6743,-5.61123,1.83467,0.0932313,-2.35107
1159817,1453.4,-46.1089,-5.51593,1.82755,0.0538659,-2.38802
1159866,1452.35,-45.5365,-5.02929,1.81375,0.0117943,-2.43517
1159915,1451.33,-44.9353,-7.01625,1.80299,-0.0271943,-2.50104
1159968,1450.27,-44.3883,-4.96639,1.79319,-0.059919,-2.5924
1160018,1449.24,-43.8003,-6.61109,1.78723,-0.0830557,-2.69096
1160067,1448.23,-43.3277,-5.65346,1.78866,-0.0947465,-2.79521
1160120,1447.09,-42.8209,-6.12511,1.80294,-0.0980311,-2.92144
1160169,1445.96,-42.4435,0.705241,1.81301,-0.09492,-3.04108
1160218,1444.77,-41.7926,-0.996325,1.8313,-0.0892913,3.12329
1160268,1443.48,-41.2869,-2.74918,1.86882,-0.0823057,3.00069
1160321,1442.04,-40.911,-0.515241,1.90862,-0.0804097,2.88278
1160371,1440.64,-40.4856,0.385144,1.95458,-0.0785423,2.76997
1160420,1439.25,-40.0557,0.85526,2.00446,-0.077197,2.6705
1160469,1437.86,-39.6183,1.90722,2.04923,-0.0822029,2.58816
1160524,1436.29,-39.0902,-3.69015,2.101,-0.0863744,2.509
1160597,1434.29,-38.7676,-2.90512,2.1707,-0.0823982,2.44393
1160646,1433,-38.4834,-2.85051,2.20394,-0.0831093,2.42113
1160698,1431.67,-38.1624,-5.58744,2.24699,-0.0778528,2.41597
1160747,1430.43,-37.992,-0.0108156,2.28216,-0.0667357,2.43099
1160796,1429.2,-37.5559,-0.494969,2.31771,-0.0602088,2.47303
1160845,1427.98,-37.1478,1.92092,2.35566,-0.0582996,2.53545
1160898,1426.67,-36.5863,-1.93173,2.39095,-0.0621116,2.62692
1160947,1425.46,-36.2749,-1.89079,2.41842,-0.0709051,2.72964
1160996,1424.27,-35.9609,-4.75148,2.43392,-0.0882717,2.84883
1161049,1422.97,-35.7854,-0.582499,2.43305,-0.128754,2.99361
1161098,1421.79,-35.4171,-2.31287,2.41953,-0.177922,3.1364
1161147,1420.6,-35.1447,-0.722891,2.38028,-0.242904,-2.98979
1161196,1419.4,-34.8162,2.66381,2.31436,-0.316978,-2.82086
1161249,1418.12,-34.2915,4.22035,2.21823,-0.409066,-2.61516
1161298,1416.94,-33.7342,2.1115,2.10719,-0.488256,-2.40627
1161347,1415.78,-33.2938,1.46226,1.9743,-0.557321,-2.17538
1161400,1414.57,-32.8341,-2.90405,1.81635,-0.611877,-1.90862
1161449,1413.48,-32.6083,-6.45559,1.67072,-0.630236,-1.65755
1161498,1412.41,-32.5539,-7.72997,1.54747,-0.618262,-1.42724
1161547,1411.34,-32.5609,-6.46636,1.47315,-0.582742,-1.22855
1161600,1410.18,-32.5057,-8.05022,1.42502,-0.528508,-1.03635
1161649,1409.11,-32.5307,-6.01944,1.39989,-0.460678,-0.875393
1161699,1407.95,-32.5022,-7.58474,1.39328,-0.371292,-0.727058
1161748,1406.78,-32.5725,-8.05081,1.39393,-0.266756,-0.595132
1161801,1405.57,-32.6321,-2.64912,1.4031,-0.137438,-0.467026
1161850,1404.47,-32.4136,-3.11713,1.41098,-0.0198699,-0.361773
1161899,1403.4,-32.2058,-4.75492,1.42141,0.0727194,-0.26379
1161952,1402.23,-32.0788,-4.35541,1.43402,0.140867,-0.165557
1162000,1401.16,-31.9596,-5.97002,1.45382,0.177863,-0.0831585
1162049,1400.02,-31.9478,-4.56458,1.48439,0.196197,-0.00840454
1162098,1398.86,-31.885,4.3439,1.5236,0.194288,0.0522757
1162151,1397.6,-31.3619,-5.19094,1.56553,0.18447,0.103265
1162200,1396.43,-31.3572,-6.04797,1.5946,0.172425,0.134516
1162249,1395.22,-31.4209,-3.43504,1.61174,0.156453,0.143433
1162302,1393.88,-31.3757,-5.63592,1.6209,0.138164,0.137227
1162351,1392.63,-31.4491,-4.14896,1.62078,0.120131,0.124938
1162400,1391.35,-31.4676,-4.84387,1.61291,0.0990981,0.102252
1162449,1390.04,-31.5362,-5.38168,1.607,0.0676387,0.0665776
1162502,1388.57,-31.6759,-5.05016,1.61877,0.00835039,0.013684
1162551,1387.25,-31.7594,-3.79854,1.6441,-0.0668796,-0.0482801
1162600,1385.94,-31.7755,-3.93177,1.67874,-0.161386,-0.128603
1162649,1384.62,-31.7964,-5.41018,1.72422,-0.269768,-0.226454
1162696,1383.37,-31.874,-6.12778,1.77355,-0.381719,-0.339201
1162745,1382.09,-31.9731,-8.24703,1.83094,-0.501837,-0.478716
1162794,1380.82,-32.1672,-12.9132,1.89616,-0.617369,-0.638914
1162847,1379.45,-32.6073,-17.9295,1.96542,-0.729448,-0.829182
1162896,1378.16,-33.2555,-14.6678,2.0278,-0.800899,-0.993913
1162945,1376.93,-33.6871,-19.9447,2.0892,-0.848094,-1.1401
1162995,1375.62,-34.4022,-19.2088,2.13869,-0.879437,-1.2761
1163048,1374.19,-35.13,-18.1603,2.18345,-0.892367,-1.38858
1163097,1372.93,-35.6878,-16.1959,2.23061,-0.888044,-1.47256
1163146,1371.63,-36.1568,-17.4389,2.28867,-0.866792,-1.54549
1163199,1370.18,-36.7384,-15.5744,2.35159,-0.831023,-1.60248
1163273,1368.11,-37.4157,-18.6304,2.44395,-0.753595,-1.65525
1163322,1366.76,-37.9781,-14.621,2.49777,-0.689773,-1.66775
1163371,1365.34,-38.3733,-13.2879,2.56385,-0.615778,-1.67653
1163423,1363.76,-38.7605,-15.6497,2.64027,-0.529483,-1.67464
1163472,1362.24,-39.2526,-12.3619,2.71759,-0.444159,-1.66093
1163521,1360.72,-39.5658,-14.739,2.79645,-0.362658,-1.63483
1163574,1359.02,-40.0556,-18.4901,2.87638,-0.282064,-1.58792
1163623,1357.42,-40.6987,-18.2867,2.93744,-0.216751,-1.5298
1163672,1355.76,-41.3487,-16.7389,2.97827,-0.159126,-1.46518
1163721,1354.02,-41.9501,-20.718,3.00385,-0.11064,-1.39315
1163775,1352.05,-42.8428,-16.8062,3.01794,-0.0651548,-1.29537
1163824,1350.23,-43.4642,-18.7655,3.02592,-0.0299514,-1.19546
1163873,1348.35,-44.1885,-19.6913,3.02348,0.00308503,-1.08647
1163926,1346.29,-45.023,-21.0158,3.00447,0.0412786,-0.963819
1163975,1344.31,-45.8727,-17.3927,2.97828,0.0842049,-0.850327
1164024,1342.3,-46.5453,-19.2979,2.94086,0.139324,-0.742398
1164073,1340.28,-47.2956,-15.9043,2.89289,0.21027,-0.643718
1164126,1338.11,-47.89,-14.925,2.84026,0.301216,-0.550401
1164175,1336.15,-48.3376,-16.935,2.79455,0.393928,-0.477618
1164225,1334.23,-48.825,-13.2069,2.74983,0.494885,-0.420135
1164278,1332.3,-49.0571,-13.6052,2.69725,0.603198,-0.384925
1164327,1330.61,-49.2132,-14.2229,2.64406,0.708067,-0.378162
1164376,1329.02,-49.3292,-15.7991,2.58644,0.818832,-0.406896
1164425,1327.49,-49.4743,-15.5636,2.51023,0.929815,-0.479291
1164479,1325.85,-49.5853,-22.3868,2.36295,1.0438,-0.644439
1164528,1324.42,-49.9706,-17.2416,2.13627,1.12634,-0.899136
1164577,1322.95,-50.1175,-16.4117,1.79035,1.1658,-1.27421
1164630,1321.31,-50.2681,-16.1156,1.36955,1.13772,-1.71163
1164678,1319.8,-50.3983,-12.8301,1.03092,1.05288,-2.04783
1164727,1318.22,-50.3983,-11.8463,0.788024,0.913939,-2.28633
1164776,1316.66,-50.3345,-7.56833,0.630254,0.740396,-2.44006
1164829,1314.99,-50.0394,-5.19132,0.509776,0.522668,-2.54739
1164878,1313.43,-49.6665,-4.50971,0.419732,0.308021,-2.61475
1164927,1311.87,-49.2751,-2.79787,0.332148,0.0916661,-2.67072
1164976,1310.3,-48.8229,-7.13082,0.251212,-0.120283,-2.72966
1165029,1308.55,-48.6128,-9.42187,0.177466,-0.348275,-2.79936
1165078,1306.9,-48.5636,-11.3013,0.13268,-0.559428,-2.87437
1165127,1305.2,-48.6355,-13.4439,0.129665,-0.771077,-2.96969
1165180,1303.32,-48.848,-10.0247,0.202949,-0.988253,-3.11882
1165230,1301.55,-48.8753,-5.6145,0.387522,-1.17327,2.93596
1165279,1299.82,-48.6808,-2.7943,0.802017,-1.3175,2.49672
1165328,1298.13,-48.3322,0.336746,1.6095,-1.36883,1.67392
1165381,1296.37,-47.7595,-1.57235,2.35452,-1.28782,0.920486
1165430,1294.81,-47.2931,-3.02444,2.69227,-1.16505,0.57364
1165479,1293.28,-46.8885,-0.224429,2.88464,-1.0262,0.357451
1165533,1291.62,-46.2971,-7.3253,3.01039,-0.863701,0.18701
1165582,1290.13,-46.1112,-8.39264,3.07121,-0.708344,0.0620337
1165631,1288.62,-45.9906,-9.70656,3.08997,-0.549057,-0.0461038
1165680,1287.09,-45.9543,-10.839,3.07295,-0.390653,-0.142311
1165733,1285.45,-45.972,-9.70151,3.01785,-0.224152,-0.236401
1165783,1283.93,-45.9043,-6.06536,2.94079,-0.0724568,-0.316557
1165832,1282.5,-45.6267,-5.11357,2.84837,0.0693732,-0.391531
1165881,1281.14,-45.2678,-0.577809,2.74898,0.203297,-0.463282
1165958,1279.13,-44.2917,-0.397928,2.59947,0.397259,-0.557449
1166007,1278.01,-43.5782,3.81914,2.50599,0.514172,-0.619459
1166056,1276.99,-42.619,-0.852551,2.42239,0.621818,-0.673707
1166109,1275.95,-41.8196,-2.59791,2.3529,0.728899,-0.717832
1166158,1275.04,-41.1557,-3.94276,2.31795,0.815552,-0.736292
1166208,1274.14,-40.5422,-6.09668,2.32161,0.890153,-0.722149
1166257,1273.33,-40.0217,-9.20893,2.36436,0.940092,-0.673801
1166310,1272.54,-39.5773,-9.71071,2.46022,0.957866,-0.574152
1166359,1271.85,-39.1743,-7.75106,2.57426,0.945898,-0.451048
1166407,1271.19,-38.6915,-6.7689,2.70245,0.899883,-0.315665
1166460,1270.43,-38.1508,-7.09088,2.83577,0.803215,-0.173939
1166509,1269.64,-37.7385,-6.89526,2.93223,0.68044,-0.0684147
1166558,1268.76,-37.3957,-2.97616,3.00695,0.530537,0.018677
1166607,1267.83,-36.912,-0.911632,3.05646,0.359145,0.0901769
1166660,1266.74,-36.3583,1.34463,3.08682,0.150915,0.157627
1166709,1265.69,-35.7868,3.33543,3.09813,-0.0519716,0.217421
1166758,1264.63,-35.1446,1.48261,3.08912,-0.261226,0.277935
1166811,1263.52,-34.5434,-2.49677,3.05381,-0.483241,0.35413
1166860,1262.55,-34.1606,-2.78708,2.99024,-0.680109,0.441719
1166909,1261.57,-33.8107,-6.18008,2.8959,-0.861179,0.552017
1166959,1260.57,-33.6359,-9.0555,2.77102,-1.02426,0.703277
1167012,1259.49,-33.6236,-11.46,2.58073,-1.16278,0.942943
1167061,1258.42,-33.7685,-13.5643,2.27885,-1.24731,1.30056
1167110,1257.32,-34.0428,-14.0204,1.86861,-1.26504,1.76979
1167159,1256.13,-34.3846,-13.3387,1.52206,-1.21053,2.17721
1167212,1254.8,-34.7379,-11.8038,1.31307,-1.09591,2.45379
1167261,1253.57,-34.9775,-9.18581,1.22164,-0.961015,2.59848
1167310,1252.33,-35.0868,-8.34991,1.17355,-0.810487,2.68625
1167363,1250.99,-35.1601,-3.82372,1.13844,-0.652733,2.75128
1167412,1249.76,-35.0001,-3.36017,1.11677,-0.519991,2.79654
1167461,1248.58,-34.7956,-1.51435,1.10334,-0.403631,2.8321
1167510,1247.4,-34.5031,-1.88477,1.09713,-0.300763,2.86002
1167563,1246.14,-34.2043,-2.51729,1.08918,-0.199163,2.87712
1167612,1245.01,-33.9479,-2.42561,1.08715,-0.125221,2.87149
1167660,1243.97,-33.6524,-2.64153,1.08675,-0.0796215,2.83323
1167713,1242.84,-33.3344,-3.96767,1.1069,-0.0626909,2.75112
1167762,1241.86,-33.0726,-2.46579,1.1363,-0.0833004,2.63035
1167811,1240.92,-32.7196,-2.32878,1.1781,-0.129827,2.47259
1167860,1239.99,-32.3636,-0.514272,1.23474,-0.194991,2.28059
1167913,1238.93,-31.9323,-2.19196,1.31693,-0.274467,2.04465
1167962,1237.94,-31.6414,-0.794589,1.40615,-0.346949,1.79899
1168011,1236.97,-31.2755,-2.84241,1.50201,-0.406677,1.54247
1168060,1236.05,-30.9831,-5.96759,1.59559,-0.447882,1.27544
1168113,1235.09,-30.8231,-9.32162,1.68522,-0.464377,0.979877
1168163,1234.2,-30.8286,-10.3898,1.7571,-0.445684,0.702893
1168212,1233.25,-30.9389,-10.9297,1.80972,-0.396337,0.441232
1168265,1232.18,-31.1127,-9.48884,1.84479,-0.31432,0.180508
1168314,1231.13,-31.2385,-8.07745,1.86628,-0.222805,-0.037947
1168363,1230.05,-31.3174,-5.41427,1.883,-0.124604,-0.247063
1168412,1228.93,-31.2885,-5.84043,1.88465,-0.0201876,-0.451751
1168466,1227.66,-31.3042,-1.94491,1.85929,0.103116,-0.684085
1168515,1226.5,-31.1433,-2.38775,1.81175,0.216394,-0.901684
1168564,1225.24,-31.0671,-3.27993,1.74611,0.325719,-1.12551
1168643,1223.08,-31.118,-5.13467,1.61783,0.484155,-1.4945
1168692,1221.73,-31.2457,-8.01357,1.5213,0.562885,-1.73359
1168741,1220.33,-31.5385,-9.5454,1.42767,0.623069,-1.96606
1168790,1218.92,-31.9088,-11.4863,1.34059,0.66484,-2.188
1168843,1217.41,-32.378,-13.5596,1.26221,0.686158,-2.40014
1168892,1216.04,-32.8778,-13.5747,1.2142,0.701535,-2.56461
1168941,1214.72,-33.3339,-12.9949,1.17647,0.709007,-2.70806
1168994,1213.29,-33.7713,-14.7295,1.11585,0.693965,-2.89608
1169043,1211.97,-34.2542,-11.7975,1.06487,0.653985,-3.08335
1169092,1210.68,-34.5488,-11.61,1.00013,0.576371,2.99576
1169141,1209.41,-34.8145,-6.98769,0.941471,0.463663,2.79668
1169194,1208.03,-34.8573,-2.97553,0.879445,0.309012,2.57723
1169243,1206.73,-34.7124,-3.46384,0.839335,0.153411,2.38411
1169292,1205.42,-34.6084,-0.314321,0.822298,-0.00674196,2.1995
1169345,1203.98,-34.3496,-0.564555,0.82775,-0.176417,1.99643
1169394,1202.73,-34.0806,-3.13114,0.859591,-0.325858,1.79653
1169444,1201.5,-33.9066,-5.85395,0.928178,-0.455009,1.57292
1169493,1200.27,-33.8865,-9.06561,1.02818,-0.542855,1.34442
1169546,1198.92,-34.0447,-12.1958,1.16356,-0.586344,1.0944
1169595,1197.67,-34.3436,-11.7026,1.29816,-0.576006,0.876606
1169644,1196.36,-34.6476,-11.7195,1.44305,-0.534351,0.674761
1169697,1194.87,-35.0176,-12.5164,1.60185,-0.468318,0.480522
1169747,1193.45,-35.4,-11.5438,1.75502,-0.390535,0.318285
1169796,1192.03,-35.7395,-12.8026,1.91345,-0.302977,0.175093
1169845,1190.59,-36.1405,-12.352,2.07586,-0.208518,0.0497979
1169898,1189.01,-36.5541,-13.382,2.25861,-0.0990055,-0.076123
1169947,1187.54,-36.9694,-11.3021,2.42587,0.00443994,-0.180373
1169996,1186.14,-37.2338,-14.0643,2.59106,0.108745,-0.275718
1170044,1184.83,-37.564,-7.54136,2.74066,0.217751,-0.365765
1170097,1183.46,-37.5269,-13.8371,2.87847,0.325089,-0.449295
1170146,1182.2,-37.7896,-14.3642,2.98162,0.402942,-0.507285
1170195,1180.96,-38.0548,-12.0238,3.06725,0.453223,-0.539237
1170248,1179.59,-38.2294,-17.7367,3.13783,0.463009,-0.547346
1170297,1178.26,-38.71,-9.59612,-3.09581,0.439254,-0.534835
1170346,1176.87,-38.8189,-13.9311,-3.0711,0.377915,-0.507185
1170396,1175.43,-39.1524,-11.4758,-3.06328,0.286785,-0.472513
1170449,1173.9,-39.376,-26.0342,-3.10318,0.166067,-0.437888
1170498,1172.46,-40.2898,-26.9164,3.11174,0.046595,-0.407433
1170547,1170.96,-41.2552,-28.5311,3.01199,-0.0786173,-0.385184
1170600,1169.27,-42.3968,-18.6136,2.88072,-0.213371,-0.377842
1170649,1167.72,-42.9259,-12.371,2.75124,-0.334178,-0.391144
1170698,1166.1,-43.1801,-20.3908,2.6402,-0.462331,-0.422743
1170747,1164.47,-43.8281,-13.1234,2.54983,-0.602776,-0.461571
1170800,1162.69,-44.1346,-7.89766,2.48881,-0.75778,-0.505055
1170849,1161.08,-44.1329,-11.2365,2.46993,-0.898732,-0.557092
1170898,1159.48,-44.2791,-16.2677,2.47993,-1.03812,-0.602998
1170952,1157.82,-44.6359,-20.3112,2.51204,-1.16758,-0.632261
1171001,1156.4,-45.0823,-25.3632,2.50608,-1.26203,-0.59563
1171050,1155.04,-45.7105,-18.0734,2.4062,-1.32647,-0.447078
1171099,1153.7,-45.9567,-21.8347,2.12952,-1.3621,-0.116094
1171152,1152.31,-46.3692,-16.8697,1.76728,-1.34767,0.303829
1171201,1151.07,-46.4646,-24.4404,1.50256,-1.29658,0.619157
1171277,1149.07,-47.2182,-2.83785,1.25769,-1.16788,0.908562
1171330,1147.63,-46.6291,-5.99322,1.19103,-1.06506,0.992067
1171379,1146.29,-46.2611,-1.96173,1.12474,-0.961153,1.05047
1171427,1144.95,-45.7402,-3.6033,1.08658,-0.873839,1.06225
1171476,1143.58,-45.3085,1.05453,1.06082,-0.801518,1.05275
1171530,1142.09,-44.5867,-1.37488,1.03697,-0.746525,1.03203
1171579,1140.75,-44.0675,4.93813,1.02204,-0.714109,1.00741
1171628,1139.46,-43.2271,1.58335,1.01262,-0.699585,0.972134
1171677,1138.23,-42.5285,-3.71602,1.0096,-0.697389,0.927309
1171730,1136.89,-42.0896,0.744404,1.01138,-0.705837,0.867913
1171779,1135.68,-41.4602,5.09324,1.02119,-0.728287,0.803794
1171828,1134.49,-40.6315,3.14555,1.0726,-0.784502,0.68902
1171882,1133.19,-39.8411,0.116673,1.17292,-0.861797,0.520859
1171931,1132.06,-39.2671,0.766878,1.30842,-0.933829,0.322887
1171980,1130.93,-38.6783,-1.34987,1.49603,-0.999504,0.0687122
1172029,1129.81,-38.2024,-11.3948,1.74036,-1.0378,-0.238827
1172095,1128.35,-38.2055,-9.892,2.09334,-1.01828,-0.685275
1172144,1127.33,-38.0909,-8.95127,2.31267,-0.954378,-0.97745
1172193,1126.34,-37.911,-12.379,2.48051,-0.857493,-1.21862
1172246,1125.29,-37.8914,-17.3734,2.6021,-0.728845,-1.42122
1172295,1124.31,-38.1169,-14.4978,2.66908,-0.599311,-1.57312
1172344,1123.32,-38.202,-8.16473,2.71187,-0.466061,-1.70711
1172393,1122.34,-37.981,-15.4161,2.72936,-0.335383,-1.82691
1172446,1121.2,-38.173,-9.98182,2.7216,-0.196579,-1.95018
1172495,1120.14,-38.0924,-10.207,2.69444,-0.06888,-2.06293
1172544,1119.08,-38.0246,-11.2192,2.64478,0.0546711,-2.1758
1172597,1117.86,-38.0547,1.32488,2.57225,0.196226,-2.30612
1172646,1116.72,-37.489,-4.18774,2.48678,0.33254,-2.44332
1172695,1115.58,-37.2021,-0.72136,2.37153,0.469801,-2.60604
1172744,1114.51,-36.7153,-2.82629,2.21874,0.597613,-2.80056
1172796,1113.41,-36.2966,-7.32432,2.01697,0.707148,-3.04443
1172845,1112.33,-36.1637,-4.91636,1.79109,0.775246,2.96767
1172894,1111.16,-35.9809,-6.78824,1.53906,0.801893,2.66671
1172947,1109.78,-35.971,-8.80129,1.28739,0.780628,2.34848
1172996,1108.39,-36.1367,-12.9069,1.09141,0.723378,2.08759
1173045,1106.9,-36.5609,-16.0802,0.946663,0.640533,1.87648
1173094,1105.36,-37.1603,-15.7698,0.855751,0.547231,1.71182
1173147,1103.72,-37.7551,-18.785,0.79696,0.454706,1.58417
1173196,1102.28,-38.3723,-20.2936,0.778401,0.384537,1.51463
1173245,1100.94,-38.9738,-12.7553,0.777208,0.343813,1.48789
1173295,1099.65,-39.1428,-18.3636,0.787936,0.331835,1.50367
1173348,1098.35,-39.565,-15.5343,0.809012,0.341009,1.54985
1173397,1097.14,-39.8062,-17.7194,0.842512,0.369372,1.625
1173446,1095.92,-40.1471,-16.1293,0.889471,0.412264,1.73016
1173499,1094.53,-40.4743,-15.6128,0.960775,0.460439,1.85981
1173548,1093.15,-40.8094,-15.1884,1.03133,0.500085,1.9795
